~Version information
  VERS.                            1.20: CWLS LAS  -  VERSION 1.20
  WRAP.                              NO: One line per depth step
~Well information
# MNEM.UNIT
# ====.================================:===================
  STRT.M                       0.200000: First depth in file
  STOP.M                    1577.200000: Last depth in file
  STEP.M                       0.100000: Depth increment
  NULL.                         9999.99: Null values
  COMP.                         COMPANY:
  WELL.                            WELL:                    6280
  FLD .                           FIELD:                    Алексеевское мест-е
  CNTY.                          COUNTY:
  STAT.                           STATE: RUSSIA
  DATE.                        LOG DATE:                        28/09/2017
  SRVC.                   ООО ТНГ АЛГИС: ООО ТНГ АЛГИС
  UWI.           Unique Well Identifier:
~Parametr information block
# MNEM.UNIT
# ====.================================:===================
~Other information
# ------------------------- REMARKS  AREA ------------------

~Curve information
# MNEM.UNIT
# ====.================================:===================
  DEPTH .M                      :   1 Depth
  GK    .ur/h                   :   Гамма каротаж
  NKTD  .ue                     :   Нейтронный каротаж по тепловым нейтронам (большой зонд)
  WNK   .%                      :   Водородосодержание по НК
  NKTS  .ue                     :   Нейтронный каротаж по тепловым нейтронам (малый зонд)
~A Log        GK     NKTD      WNK     NKTS
# ...
1353.00    8.449   10.630    7.679    2.619 
1353.10    8.429   10.908    7.770    2.648 
1353.20    8.827   11.179    7.923    2.679 
1353.30    9.236   11.066    7.738    2.686 
1353.40    9.460   10.923    7.705    2.682 
1353.50    9.814   10.933    7.834    2.669 
1353.60   10.655   10.901    8.002    2.657 
1353.70   11.132   10.848    8.068    2.632 
1353.80   10.873   10.762    8.052    2.619 
1353.90    9.735   10.738    7.798    2.625 
1354.00    9.018   10.866    7.076    2.629 
1354.10    8.268   11.316    6.207    2.632 
1354.20    8.027   12.090    5.640    2.661 
1354.30    7.200   12.786    5.583    2.733 
1354.40    6.507   13.179    5.713    2.803 
1354.50    5.640   13.103    6.191    2.817 
1354.60    5.286   12.794    6.609    2.804 
1354.70    5.544   12.062    7.657    2.778 
1354.80    6.576   11.223    9.199    2.734 
1354.90    8.190   10.122   11.064    2.655 
1355.00   10.361    9.143   12.089    2.533 
1355.10   10.993    8.319   12.236    2.425 
1355.20   10.762    7.919   12.851    2.380 
1355.30    9.554    7.665   13.541    2.375 
1355.40    9.328    7.314   15.223    2.372 
1355.50    9.316    7.182   15.629    2.311 
1355.60    9.237    6.941   14.415    2.267 
1355.70    8.782    7.019   12.911    2.293 
1355.80    8.226    7.251   12.385    2.377 
1355.90    7.732    7.490   13.963    2.443 
1356.00    7.717    7.496   14.860    2.402 
1356.10    7.637    7.163   13.709    2.327 
1356.20    7.375    7.244   11.149    2.275 
1356.30    6.990    7.930    9.285    2.329 
1356.40    7.376    9.066    8.605    2.445 
1356.50    7.350   10.053    8.135    2.551 
1356.60    6.676   10.644    7.647    2.599 
1356.70    5.005   11.010    7.568    2.629 
1356.80    3.814   11.228    8.158    2.686 
1356.90    3.399   10.985    8.987    2.709 
1357.00    3.752   10.535    9.046    2.689 
1357.10    4.407    9.961    9.361    2.619 
1357.20    5.201    9.835    9.668    2.595 
1357.30    5.989    9.315   10.462    2.565 
1357.40    6.882    8.596   12.245    2.540 
1357.50    8.431    7.541   14.944    2.445 
1357.60   10.206    6.615   17.563    2.292 
1357.70   11.225    6.046   17.408    2.092 
1357.80   10.575    5.746   17.026    1.995 
1357.90    9.745    6.005   16.545    2.047 
1358.00    9.280    6.245   15.153    2.155 
1358.10    9.038    6.614   13.514    2.239 
1358.20    8.184    7.269   11.618    2.295 
1358.30    7.220    7.978   10.795    2.386 
1358.40    5.997    8.859   10.120    2.482 
1358.50    4.764    9.346    9.538    2.545 
1358.60    3.686    9.763    9.203    2.596 
1358.70    3.489    9.923    8.947    2.635 
1358.80    3.698    9.797   10.326    2.663 
1358.90    4.621    9.646   11.088    2.629 
1359.00    5.541    8.980   11.576    2.551 
1359.10    6.227    8.687   10.853    2.478 
1359.20    6.039    8.531   11.930    2.474 
1359.30    5.719    8.775   11.969    2.483 
1359.40    5.580    8.439   10.570    2.495 
1359.50    5.627    8.477    8.816    2.481 
1359.60    5.235    8.959    8.609    2.509 
1359.70    4.769    9.498   10.164    2.525 
1359.80    5.021    9.480   11.669    2.498 
1359.90    5.701    8.980   11.768    2.424 
1360.00    6.266    8.577   10.351    2.393 
1360.10    6.492    8.542    9.623    2.455 
1360.20    6.911    8.886   10.164    2.520 
1360.30    7.921    9.083   11.802    2.521 
1360.40    8.517    8.952   12.159    2.451 
1360.50    8.692    8.420   11.369    2.417 
1360.60    8.148    8.231   10.007    2.447 
1360.70    7.704    8.382   10.752    2.489 
1360.80    7.442    8.811   11.917    2.473 
1360.90    7.365    8.625   11.652    2.428 
1361.00    7.408    8.317   10.296    2.390 
1361.10    7.868    8.429    9.525    2.427 
1361.20    7.950    8.851   10.696    2.471 
1361.30    8.040    8.991   11.538    2.474 
1361.40    7.747    8.374   12.111    2.435 
1361.50    7.654    8.147   11.429    2.380 
1361.60    6.552    8.269   10.527    2.349 
1361.70    5.504    8.855    9.330    2.379 
1361.80    4.736    9.391    8.455    2.479 
1361.90    5.090    9.889    8.701    2.573 
1362.00    5.613   10.249    9.166    2.613 
1362.10    5.808   10.016    9.773    2.592 
1362.20    6.197    9.552   10.062    2.566 
1362.30    6.808    8.885   11.116    2.541 
1362.40    7.648    8.362   12.770    2.483 
1362.50    8.705    7.656   16.119    2.382 
1362.60   10.391    7.033   17.527    2.274 
1362.70   12.599    6.174   17.120    2.192 
1362.80   14.196    6.066   15.120    2.172 
1362.90   14.146    6.410   13.512    2.191 
1363.00   13.096    7.261   11.755    2.271 
1363.10   11.240    8.065    9.161    2.364 
1363.20    9.745    8.964    8.026    2.476 
1363.30    8.487   10.351    7.652    2.572 
1363.40    8.001   11.116    7.887    2.644 
1363.50    7.517   11.527    7.603    2.689 
1363.60    7.471   11.425    6.779    2.719 
1363.70    7.046   11.555    6.850    2.762 
1363.80    6.614   12.063    6.648    2.773 
1363.90    6.265   12.140    7.091    2.761 
1364.00    6.068   12.484    6.543    2.749 
1364.10    5.878   12.256    6.590    2.778 
1364.20    5.319   12.524    6.674    2.824 
1364.30    4.845   12.323    7.272    2.844 
1364.40    4.490   12.112    7.155    2.815 
1364.50    4.510   11.620    7.256    2.777 
1364.60    5.060   11.609    7.077    2.744 
1364.70    5.992   11.590    7.572    2.725 
1364.80    6.549   11.689    7.969    2.704 
1364.90    6.659   11.484    8.112    2.715 
1365.00    6.172   11.070    8.400    2.711 
1365.10    6.175   10.883    8.001    2.739 
1365.20    6.137   10.649    7.904    2.699 
1365.30    5.722   11.073    7.682    2.674 
1365.40    4.529   11.400    7.072    2.658 
1365.50    3.817   11.589    7.019    2.704 
1365.60    4.088   11.681    6.378    2.769 
1365.70    5.114   11.452    7.128    2.781 
1365.80    5.893   11.678    7.997    2.708 
1365.90    6.339   11.440    8.044    2.647 
1366.00    5.837   10.894    8.266    2.599 
1366.10    5.473   10.407    9.722    2.661 
1366.20    4.856    9.854   12.649    2.660 
1366.30    4.531    8.986   14.515    2.548 
1366.40    3.855    7.953   14.213    2.442 
1366.50    3.557    7.352   12.081    2.403 
1366.60    4.247    7.607   10.043    2.443 
1366.70    5.096    8.562    8.637    2.446 
1366.80    5.852    9.914    7.667    2.499 
1366.90    5.322   11.131    6.752    2.563 
1367.00    4.418   12.061    5.588    2.694 
1367.10    3.645   12.686    5.146    2.814 
1367.20    3.803   13.287    5.436    2.892 
1367.30    4.531   13.259    6.234    2.887 
1367.40    5.544   12.696    7.327    2.818 
1367.50    6.834   11.878    8.045    2.734 
1367.60    7.683   11.132    8.727    2.667 
1367.70    7.849   10.449    8.465    2.621 
1367.80    7.428    9.082   10.039    2.619 
1367.90    7.438    7.531   15.704    2.558 
1368.00    8.895    5.599   28.529    2.307 
1368.10   11.147    3.847   40.856    1.886 
1368.20   13.444    2.507   43.846    1.521 
1368.30   14.798    1.870   44.529    1.343 
1368.40   15.265    1.767   43.996    1.333 
1368.50   15.759    1.710   44.232    1.344 
1368.60   15.882    1.715   42.314    1.353 
1368.70   15.360    1.729   39.182    1.327 
1368.80   14.580    1.906   38.343    1.317 
1368.90   13.856    2.125   35.691    1.334 
1369.00   13.432    2.260   32.994    1.412 
1369.10   12.452    2.481   29.346    1.471 
1369.20   11.975    2.793   27.398    1.536 
1369.30   11.320    3.195   27.858    1.585 
1369.40   10.597    3.336   29.187    1.670 
1369.50    9.421    3.032   33.040    1.738 
1369.60    9.446    2.555   37.028    1.719 
1369.70   10.330    2.091   41.789    1.583 
1369.80   10.858    1.810   46.615    1.383 
1369.90   10.897    1.601   49.505    1.252 
1370.00   11.291    1.433   49.066    1.193 
1370.10   12.257    1.356   48.776    1.173 
1370.20   13.050    1.406   50.525    1.161 
1370.30   12.720    1.499   52.223    1.162 
1370.40   11.865    1.613   47.828    1.194 
1370.50   10.876    1.747   41.762    1.267 
1370.60   10.144    2.102   35.540    1.409 
1370.70    9.699    2.520   33.244    1.576 
