~Version information
  VERS.                            1.20: CWLS LAS  -  VERSION 1.20
  WRAP.                              NO: One line per depth step
~Well information
# MNEM.UNIT
# ====.================================:===================
  STRT.M                       0.200000: First depth in file
  STOP.M                    1577.200000: Last depth in file
  STEP.M                       0.100000: Depth increment
  NULL.                         9999.99: Null values
  COMP.                         COMPANY:
  WELL.                            WELL:                    6280
  FLD .                           FIELD:                    Алексеевское мест-е
  CNTY.                          COUNTY:
  STAT.                           STATE: RUSSIA
  DATE.                        LOG DATE:                        28/09/2017
  SRVC.                   ООО ТНГ АЛГИС: ООО ТНГ АЛГИС
  UWI.           Unique Well Identifier:
~Parametr information block
# MNEM.UNIT
# ====.================================:===================
~Other information
# ------------------------- REMARKS  AREA ------------------

~Curve information
# MNEM.UNIT
# ====.================================:===================
  DEPTH .M                      :   1 Depth
  GK    .ur/h                   :   Гамма каротаж
  NKTD  .ue                     :   Нейтронный каротаж по тепловым нейтронам (большой зонд)
  WNK   .%                      :   Водородосодержание по НК
  NKTS  .ue                     :   Нейтронный каротаж по тепловым нейтронам (малый зонд)
~A Log        GK     NKTD      WNK     NKTS
# ...
 836.80    3.164    8.313   11.240    2.670 
 836.90    3.660    8.850   11.769    2.703 
 837.00    4.376    9.367   12.214    2.700 
 837.10    4.860    9.200   12.787    2.695 
 837.20    4.636    9.172   11.750    2.697 
 837.30    4.134    9.130   10.814    2.715 
 837.40    3.886    9.931    8.873    2.763 
 837.50    4.134   10.711    7.706    2.821 
 837.60    4.279   12.058    7.196    2.928 
 837.70    4.567   12.857    7.153    3.022 
 837.80    4.708   13.104    7.198    3.086 
 837.90    5.351   12.767    7.512    3.089 
 838.00    5.617   12.059    9.236    3.060 
 838.10    5.605   11.180   12.007    2.974 
 838.20    4.940    9.729   14.696    2.816 
 838.30    4.182    8.372   15.893    2.658 
 838.40    3.383    7.441   15.429    2.538 
 838.50    2.697    7.126   15.002    2.498 
 838.60    2.569    7.241   13.846    2.494 
 838.70    2.724    7.342   13.222    2.506 
 838.80    2.718    7.767   12.048    2.501 
 838.90    2.312    8.060   10.849    2.492 
 839.00    1.900    8.484   10.751    2.513 
 839.10    2.264    8.922   11.273    2.539 
 839.20    3.617    9.202   12.217    2.536 
 839.30    5.990    9.556   10.522    2.522 
 839.40    8.262    9.795    8.612    2.588 
 839.50    9.607   11.024    7.148    2.756 
 839.60    9.435   12.287    7.066    2.951 
 839.70    8.744   13.192    7.379    3.067 
 839.80    8.485   13.091    8.190    3.102 
 839.90    8.741   12.717    8.723    3.072 
 840.00    9.349   12.283    8.700    3.034 
 840.10    9.611   12.103    7.941    3.000 
 840.20    9.978   12.187    7.558    3.031 
 840.30   10.158   12.658    7.360    3.073 
 840.40   10.014   12.871    7.922    3.091 
 840.50    9.444   12.990    8.112    3.081 
 840.60    8.813   12.594    8.407    3.067 
 840.70    9.199   12.378    8.297    3.061 
 840.80    9.616   12.140    8.319    3.063 
 840.90    9.893   12.191    8.087    3.042 
 841.00    8.785   12.205    7.883    3.031 
 841.10    8.326   12.377    7.716    3.026 
 841.20    8.339   12.496    8.131    3.033 
 841.30    8.515   12.628    8.076    3.037 
 841.40    8.631   12.350    7.875    3.033 
 841.50    8.378   12.256    7.675    3.036 
 841.60    8.964   12.285    7.729    3.038 
 841.70    9.178   12.256    8.272    3.006 
 841.80    9.933   12.104    8.752    2.980 
 841.90   10.678   11.527    9.270    2.940 
 842.00   10.719   11.126    9.581    2.912 
 842.10    9.934   10.754    9.833    2.857 
 842.20    9.046   10.649    9.815    2.830 
 842.30    9.397   10.664    9.228    2.810 
 842.40   10.038   10.857    8.510    2.827 
 842.50   10.764   11.323    8.174    2.868 
 842.60   11.422   11.741    8.171    2.917 
 842.70   11.234   11.891    8.388    2.952 
 842.80    9.813   11.810    9.078    2.948 
 842.90    7.544   11.462   10.059    2.932 
 843.00    5.723   10.862   11.027    2.911 
 843.10    4.349   10.171   11.673    2.859 
 843.20    3.473    9.649   12.475    2.810 
 843.30    3.104    9.340   13.110    2.766 
 843.40    3.541    8.783   14.293    2.750 
 843.50    3.882    8.266   14.867    2.744 
 843.60    4.408    7.571   15.339    2.677 
 843.70    4.641    7.208   14.939    2.591 
 843.80    4.657    7.143   14.960    2.496 
 843.90    4.192    7.574   12.952    2.433 
 844.00    3.834    8.003    9.636    2.458 
 844.10    3.709    8.959    7.658    2.564 
 844.20    3.826   10.476    6.890    2.712 
 844.30    3.664   11.495    6.915    2.789 
 844.40    3.581   11.878    6.827    2.789 
 844.50    3.473   11.734    7.081    2.755 
 844.60    3.710   11.648    8.267    2.725 
 844.70    4.057   11.270    9.703    2.696 
 844.80    4.883   10.343   10.511    2.662 
 844.90    5.715    9.127   12.095    2.614 
 845.00    7.020    7.789   14.799    2.563 
 845.10    8.438    5.915   25.306    2.438 
 845.20    8.989    4.170   40.340    2.166 
 845.30    8.749    2.551   51.476    1.772 
 845.40    7.950    1.877   51.549    1.404 
 845.50    7.701    1.828   42.205    1.237 
 845.60    7.567    2.252   29.296    1.333 
 845.70    6.984    3.088   21.774    1.626 
 845.80    6.401    4.526   17.160    2.006 
 845.90    5.898    5.842   15.910    2.284 
 846.00    6.531    6.912   14.249    2.458 
 846.10    7.440    7.251   14.074    2.537 
 846.20    7.948    7.733   14.134    2.553 
 846.30    7.670    7.800   15.454    2.552 
 846.40    7.076    7.781   15.850    2.544 
 846.50    6.576    7.321   15.187    2.548 
 846.60    6.008    7.250   14.512    2.548 
 846.70    5.907    7.438   13.999    2.531 
 846.80    5.832    7.668   14.059    2.546 
 846.90    5.767    7.764   14.243    2.544 
 847.00    5.204    7.708   15.034    2.551 
 847.10    4.966    7.647   15.647    2.528 
 847.20    4.846    7.366   15.090    2.516 
 847.30    4.935    7.150   14.326    2.516 
 847.40    4.819    7.271   14.296    2.504 
 847.50    4.609    7.529   14.821    2.491 
 847.60    4.030    7.611   14.464    2.477 
 847.70    3.678    7.570   13.924    2.486 
 847.80    3.557    7.793   13.317    2.509 
 847.90    3.632    8.089   12.969    2.550 
 848.00    3.484    8.393   12.297    2.587 
 848.10    3.284    8.570   11.176    2.626 
 848.20    3.674    8.777   11.194    2.655 
 848.30    3.851    9.139   11.667    2.670 
 848.40    4.353    9.029   12.084    2.654 
 848.50    4.603    8.658   12.061    2.624 
 848.60    5.231    8.247   12.617    2.594 
 848.70    5.780    8.069   15.010    2.543 
 848.80    5.583    7.823   16.651    2.469 
 848.90    4.650    7.167   16.967    2.414 
 849.00    3.281    6.687   16.753    2.399 
 849.10    2.440    6.563   16.880    2.433 
 849.20    2.267    6.601   16.114    2.422 
 849.30    2.608    6.609   14.776    2.406 
 849.40    3.327    6.900   14.349    2.401 
 849.50    4.152    7.247   14.066    2.415 
 849.60    4.942    7.336   14.366    2.448 
 849.70    4.893    7.339   14.374    2.437 
 849.80    4.631    7.215   14.676    2.424 
 849.90    4.104    7.271   14.226    2.397 
 850.00    4.134    7.327   13.097    2.386 
 850.10    4.651    7.659   11.992    2.405 
 850.20    5.260    8.247   11.102    2.454 
 850.30    5.398    8.756   10.505    2.518 
 850.40    4.917    9.149   10.115    2.584 
 850.50    4.365    9.349    9.682    2.611 
 850.60    4.038    9.522    9.248    2.617 
 850.70    3.963    9.703    9.314    2.599 
 850.80    4.006    9.839    9.751    2.597 
 850.90    3.966    9.775   10.689    2.589 
 851.00    4.032    9.737   10.682    2.568 
 851.10    3.844    9.570    9.935    2.560 
 851.20    3.730    9.711    9.050    2.607 
 851.30    3.884   10.050    8.595    2.684 
 851.40    4.382   10.357    9.243    2.723 
 851.50    5.096   10.353    9.864    2.716 
 851.60    4.892    9.843   11.070    2.676 
 851.70    4.126    9.432   11.316    2.611 
 851.80    3.072    8.895   11.940    2.568 
 851.90    2.413    8.820   11.724    2.540 
 852.00    1.991    8.766   11.370    2.541 
 852.10    2.080    9.159    9.703    2.549 
 852.20    2.092    9.650    8.241    2.608 
 852.30    2.258   10.585    7.294    2.697 
 852.40    2.217   11.370    7.160    2.796 
 852.50    2.374   11.780    7.688    2.828 
 852.60    2.687   11.632    8.528    2.814 
 852.70    3.192   11.076    9.985    2.766 
 852.80    3.661   10.520   11.047    2.710 
 852.90    4.093    9.936   10.674    2.659 
 853.00    4.794    9.800    9.557    2.644 
 853.10    6.988   10.078    8.630    2.692 
 853.20    9.598   10.301    8.662    2.796 
 853.30   10.903   10.176    9.307    2.824 
 853.40    9.074    9.832   10.742    2.731 
 853.50    5.937    9.489   11.957    2.571 
 853.60    3.528    8.896   12.235    2.489 
 853.70    2.581    8.341   11.833    2.484 
 853.80    2.264    8.113   11.415    2.501 
 853.90    1.840    8.112   11.770    2.483 
 854.00    1.647    8.224   12.405    2.446 
 854.10    1.522    8.113   12.945    2.401 
 854.20    1.538    7.975   12.795    2.388 
 854.30    1.599    7.848   12.466    2.395 
 854.40    1.556    7.956   12.489    2.423 
 854.50    1.569    8.091   12.543    2.442 
