~Version information
  VERS.                            1.20: CWLS LAS  -  VERSION 1.20
  WRAP.                              NO: One line per depth step
~Well information
# MNEM.UNIT
# ====.================================:===================
  STRT.M                       0.200000: First depth in file
  STOP.M                    1577.200000: Last depth in file
  STEP.M                       0.100000: Depth increment
  NULL.                         9999.99: Null values
  COMP.                         COMPANY:
  WELL.                            WELL:                    6280
  FLD .                           FIELD:                    Алексеевское мест-е
  CNTY.                          COUNTY:
  STAT.                           STATE: RUSSIA
  DATE.                        LOG DATE:                        28/09/2017
  SRVC.                   ООО ТНГ АЛГИС: ООО ТНГ АЛГИС
  UWI.           Unique Well Identifier:
~Parametr information block
# MNEM.UNIT
# ====.================================:===================
~Other information
# ------------------------- REMARKS  AREA ------------------

~Curve information
# MNEM.UNIT
# ====.================================:===================
  DEPTH .M                      :   1 Depth
  GK    .ur/h                   :   Гамма каротаж
  NKTD  .ue                     :   Нейтронный каротаж по тепловым нейтронам (большой зонд)
  WNK   .%                      :   Водородосодержание по НК
  NKTS  .ue                     :   Нейтронный каротаж по тепловым нейтронам (малый зонд)
~A Log        GK     NKTD      WNK     NKTS
# ...
 320.60    1.592    1.411   44.249    1.142 
 320.70    1.360    1.449   43.634    1.133 
 320.80    1.379    1.553   45.021    1.161 
 320.90    1.520    1.592   44.309    1.179 
 321.00    1.603    1.585   46.580    1.199 
 321.10    1.479    1.622   46.755    1.213 
 321.20    1.326    1.556   44.766    1.243 
 321.30    1.372    1.535   43.321    1.253 
 321.40    1.380    1.575   42.765    1.259 
 321.50    1.309    1.581   48.913    1.247 
 321.60    1.170    1.584   50.612    1.229 
 321.70    1.042    1.414   45.863    1.197 
 321.80    1.130    1.412   42.517    1.186 
 321.90    1.315    1.584   40.217    1.198 
 322.00    1.891    1.712   44.102    1.236 
 322.10    2.410    1.795   42.522    1.263 
 322.20    2.608    1.662   40.395    1.275 
 322.30    2.483    1.741   38.231    1.271 
 322.40    2.443    1.875   39.254    1.279 
 322.50    2.493    2.023   40.473    1.296 
 322.60    2.488    2.010   38.042    1.334 
 322.70    2.372    1.950   38.341    1.371 
 322.80    2.360    2.039   36.733    1.394 
 322.90    2.395    2.004   36.253    1.389 
 323.00    2.312    2.087   34.197    1.376 
 323.10    2.419    2.102   32.459    1.361 
 323.20    2.596    2.202   31.942    1.366 
 323.30    2.759    2.275   31.857    1.360 
 323.40    2.984    2.266   33.095    1.356 
 323.50    3.122    2.268   33.510    1.342 
 323.60    3.322    2.232   33.111    1.320 
 323.70    3.275    2.249   34.618    1.318 
 323.80    3.274    2.274   36.441    1.338 
 323.90    3.276    2.161   36.424    1.362 
 324.00    3.383    2.051   35.339    1.364 
 324.10    3.327    2.073   33.731    1.345 
 324.20    3.318    2.195   34.377    1.334 
 324.30    3.044    2.370   31.449    1.347 
 324.40    2.681    2.360   28.265    1.391 
 324.50    2.369    2.485   27.276    1.443 
 324.60    2.523    2.620   30.429    1.460 
 324.70    2.930    2.642   34.282    1.429 
 324.80    3.105    2.402   37.746    1.383 
 324.90    3.085    2.157   36.289    1.357 
 325.00    3.298    1.948   37.352    1.345 
 325.10    3.657    1.973   37.251    1.332 
 325.20    3.879    1.892   37.947    1.305 
 325.30    3.900    1.870   40.794    1.278 
 325.40    4.067    1.848   41.489    1.257 
 325.50    3.923    1.744   42.566    1.239 
 325.60    3.491    1.743   41.675    1.244 
 325.70    2.983    1.700   40.118    1.251 
 325.80    2.655    1.743   39.450    1.269 
 325.90    2.633    1.809   39.148    1.267 
 326.00    2.679    1.864   42.356    1.274 
 326.10    2.568    1.885   41.283    1.279 
 326.20    2.385    1.765   44.364    1.298 
 326.30    2.238    1.786   43.725    1.304 
 326.40    2.499    1.683   42.827    1.309 
 326.50    2.829    1.695   38.051    1.295 
 326.60    2.758    1.725   36.972    1.303 
 326.70    2.633    1.922   37.483    1.294 
 326.80    2.337    1.996   38.435    1.292 
 326.90    2.252    1.986   38.313    1.297 
 327.00    2.152    1.905   38.221    1.314 
 327.10    2.028    1.865   39.589    1.323 
 327.20    1.980    1.839   39.295    1.297 
 327.30    2.039    1.742   41.165    1.266 
 327.40    2.429    1.716   43.552    1.246 
 327.50    3.020    1.638   45.907    1.217 
 327.60    3.270    1.581   44.537    1.191 
 327.70    3.208    1.533   40.789    1.185 
 327.80    2.889    1.567   38.427    1.203 
 327.90    2.707    1.683   39.064    1.224 
 328.00    2.707    1.773   40.369    1.217 
 328.10    2.989    1.784   41.088    1.207 
 328.20    3.115    1.755   41.051    1.207 
 328.30    3.214    1.743   38.483    1.232 
 328.40    3.238    1.719   37.305    1.247 
 328.50    3.195    1.766   39.019    1.259 
 328.60    2.884    1.752   40.453    1.240 
 328.70    2.671    1.675   39.117    1.204 
 328.80    2.834    1.633   36.681    1.163 
 328.90    3.054    1.682   36.310    1.155 
 329.00    2.885    1.782   39.526    1.163 
 329.10    2.657    1.805   40.989    1.163 
 329.20    2.732    1.699   44.355    1.165 
 329.30    2.812    1.645   44.539    1.170 
 329.40    2.855    1.532   46.254    1.185 
 329.50    2.663    1.527   45.859    1.185 
 329.60    2.597    1.470   43.544    1.185 
 329.70    2.546    1.489   45.469    1.186 
 329.80    2.426    1.582   45.374    1.182 
 329.90    2.429    1.527   46.578    1.187 
 330.00    2.434    1.532   45.166    1.203 
 330.10    2.693    1.473   44.684    1.209 
 330.20    2.719    1.513   47.812    1.210 
 330.30    2.874    1.513   46.234    1.192 
 330.40    2.867    1.427   50.580    1.190 
 330.50    2.773    1.441   45.428    1.178 
 330.60    2.628    1.321   42.043    1.183 
 330.70    2.555    1.456   37.937    1.158 
 330.80    2.570    1.597   41.580    1.155 
 330.90    2.497    1.758   43.901    1.152 
 331.00    2.522    1.623   47.063    1.177 
 331.10    2.581    1.518   44.480    1.183 
 331.20    2.486    1.409   44.833    1.184 
 331.30    2.189    1.471   43.076    1.163 
 331.40    1.971    1.483   45.608    1.151 
 331.50    1.980    1.577   44.662    1.141 
 331.60    2.122    1.522   43.391    1.158 
 331.70    2.303    1.541   39.294    1.188 
 331.80    2.503    1.570   42.406    1.208 
 331.90    2.657    1.721   44.356    1.200 
 332.00    2.954    1.631   49.063    1.191 
 332.10    3.087    1.580   47.948    1.194 
 332.20    3.162    1.441   49.289    1.212 
 332.30    2.882    1.486   47.491    1.222 
 332.40    3.024    1.452   43.576    1.224 
 332.50    2.894    1.530   41.746    1.235 
 332.60    2.795    1.661   39.361    1.239 
 332.70    2.350    1.725   39.451    1.261 
 332.80    2.100    1.799   37.501    1.264 
 332.90    1.822    1.791   37.593    1.263 
 333.00    1.648    1.872   35.500    1.250 
 333.10    1.628    1.872   34.602    1.247 
 333.20    1.564    1.963   35.607    1.248 
 333.30    1.396    2.018   38.024    1.250 
 333.40    1.375    1.984   39.536    1.248 
 333.50    1.436    1.912   38.808    1.256 
 333.60    1.591    1.892   36.638    1.265 
 333.70    1.621    1.948   34.380    1.289 
 333.80    1.802    2.086   34.008    1.320 
 333.90    1.992    2.209   34.217    1.337 
 334.00    2.078    2.250   36.506    1.363 
 334.10    2.151    2.232   35.361    1.367 
 334.20    2.203    2.127   33.886    1.380 
 334.30    2.286    2.199   31.643    1.376 
 334.40    2.346    2.273   31.629    1.385 
 334.50    2.292    2.400   31.837    1.393 
 334.60    2.270    2.388   33.465    1.390 
 334.70    2.375    2.342   34.209    1.386 
 334.80    2.532    2.236   34.214    1.379 
 334.90    2.586    2.178   32.571    1.360 
 335.00    2.495    2.198   32.600    1.353 
 335.10    2.454    2.268   34.257    1.342 
 335.20    2.411    2.277   37.603    1.355 
 335.30    2.494    2.228   37.134    1.342 
 335.40    2.399    2.124   37.716    1.348 
 335.50    2.342    2.156   36.027    1.375 
 335.60    2.130    2.088   37.271    1.419 
 335.70    2.137    2.121   35.240    1.425 
 335.80    2.275    2.058   35.294    1.398 
 335.90    2.314    2.183   31.678    1.366 
 336.00    2.363    2.199   31.366    1.364 
 336.10    2.384    2.359   31.777    1.379 
 336.20    2.389    2.379   34.602    1.391 
 336.30    2.320    2.346   35.471    1.364 
 336.40    2.362    2.195   33.461    1.365 
 336.50    2.664    2.111   34.092    1.360 
 336.60    2.746    2.179   34.717    1.366 
 336.70    2.619    2.137   36.977    1.341 
 336.80    2.375    2.114   35.417    1.319 
 336.90    2.314    2.029   36.105    1.313 
 337.00    2.151    2.093   35.559    1.319 
 337.10    2.120    2.056   35.782    1.336 
 337.20    1.992    2.059   36.243    1.328 
 337.30    2.073    2.048   34.935    1.326 
 337.40    2.229    1.991   36.197    1.311 
 337.50    2.611    2.048   37.787    1.311 
 337.60    2.908    2.006   37.579    1.289 
 337.70    3.212    2.009   33.963    1.285 
 337.80    3.188    2.074   30.843    1.297 
 337.90    3.078    2.273   31.207    1.348 
 338.00    2.734    2.388   34.690    1.384 
 338.10    2.631    2.277   39.239    1.392 
 338.20    2.486    2.022   44.192    1.351 
 338.30    2.244    1.815   47.419    1.301 
