~Version information
  VERS.                            1.20: CWLS LAS  -  VERSION 1.20
  WRAP.                              NO: One line per depth step
~Well information
# MNEM.UNIT
# ====.================================:===================
  STRT.M                       0.200000: First depth in file
  STOP.M                    1577.200000: Last depth in file
  STEP.M                       0.100000: Depth increment
  NULL.                         9999.99: Null values
  COMP.                         COMPANY:
  WELL.                            WELL:                    6280
  FLD .                           FIELD:                    Алексеевское мест-е
  CNTY.                          COUNTY:
  STAT.                           STATE: RUSSIA
  DATE.                        LOG DATE:                        28/09/2017
  SRVC.                   ООО ТНГ АЛГИС: ООО ТНГ АЛГИС
  UWI.           Unique Well Identifier:
~Parametr information block
# MNEM.UNIT
# ====.================================:===================
~Other information
# ------------------------- REMARKS  AREA ------------------

~Curve information
# MNEM.UNIT
# ====.================================:===================
  DEPTH .M                      :   1 Depth
  GK    .ur/h                   :   Гамма каротаж
  NKTD  .ue                     :   Нейтронный каротаж по тепловым нейтронам (большой зонд)
  WNK   .%                      :   Водородосодержание по НК
  NKTS  .ue                     :   Нейтронный каротаж по тепловым нейтронам (малый зонд)
~A Log        GK     NKTD      WNK     NKTS
# ...
 623.20    3.313    6.453   12.883    2.353 
 623.30    4.714    7.502   10.575    2.463 
 623.40    6.358    8.606    9.966    2.598 
 623.50    7.134    9.545   10.410    2.670 
 623.60    7.192    9.812   11.614    2.671 
 623.70    6.306    9.584   13.090    2.662 
 623.80    5.593    9.007   13.848    2.656 
 623.90    4.761    8.310   15.110    2.652 
 624.00    4.250    7.819   16.547    2.639 
 624.10    3.859    7.237   17.910    2.602 
 624.20    3.793    6.828   17.247    2.530 
 624.30    3.762    6.641   16.067    2.467 
 624.40    3.490    6.970   15.272    2.464 
 624.50    3.005    7.412   14.871    2.522 
 624.60    2.683    7.649   14.696    2.583 
 624.70    2.832    7.605   15.212    2.625 
 624.80    3.126    7.378   16.761    2.625 
 624.90    3.292    7.014   19.178    2.568 
 625.00    3.105    6.499   21.602    2.473 
 625.10    3.183    5.910   24.126    2.401 
 625.20    3.472    5.374   24.595    2.364 
 625.30    3.682    4.876   23.740    2.349 
 625.40    3.545    4.664   23.757    2.320 
 625.50    3.244    4.680   24.747    2.281 
 625.60    3.150    4.619   26.798    2.213 
 625.70    3.099    4.529   26.184    2.164 
 625.80    3.066    4.331   25.313    2.136 
 625.90    3.286    4.562   23.247    2.160 
 626.00    3.509    4.720   22.293    2.193 
 626.10    3.502    4.907   22.210    2.270 
 626.20    3.286    4.792   25.094    2.289 
 626.30    2.939    4.682   27.405    2.234 
 626.40    2.681    4.364   27.492    2.116 
 626.50    2.473    4.284   22.701    2.062 
 626.60    2.627    4.509   18.754    2.103 
 626.70    3.244    5.454   16.105    2.208 
 626.80    3.728    6.416   15.234    2.329 
 626.90    3.815    7.260   14.198    2.440 
 627.00    3.789    7.462   13.539    2.513 
 627.10    4.152    7.355   14.272    2.575 
 627.20    5.460    6.902   18.681    2.557 
 627.30    7.464    6.443   21.711    2.415 
 627.40    9.327    5.780   19.668    2.204 
 627.50    9.877    5.755   14.089    2.122 
 627.60    8.846    6.498   10.760    2.257 
 627.70    7.225    8.022   10.524    2.494 
 627.80    5.782    8.952   12.588    2.628 
 627.90    5.187    8.825   15.478    2.622 
 628.00    5.194    7.853   16.655    2.519 
 628.10    5.351    6.838   18.364    2.455 
 628.20    5.193    6.416   18.787    2.405 
 628.30    4.441    5.951   18.755    2.366 
 628.40    3.530    5.978   18.091    2.325 
 628.50    2.742    6.193   16.970    2.298 
 628.60    2.372    6.616   15.523    2.344 
 628.70    2.244    7.120   13.518    2.425 
 628.80    2.038    7.617   13.174    2.529 
 628.90    2.060    8.296   13.254    2.611 
 629.00    2.075    8.339   14.113    2.640 
 629.10    2.101    8.244   14.731    2.647 
 629.20    2.068    7.906   15.737    2.621 
 629.30    2.056    7.779   15.708    2.600 
 629.40    2.160    7.476   15.094    2.587 
 629.50    1.959    7.482   14.735    2.611 
 629.60    1.906    7.529   14.723    2.614 
 629.70    1.878    7.654   14.096    2.613 
 629.80    2.083    7.710   12.892    2.565 
 629.90    2.268    8.061   12.211    2.570 
 630.00    2.394    8.555   11.493    2.587 
 630.10    2.501    8.873   11.359    2.636 
 630.20    2.513    9.205   11.558    2.656 
 630.30    2.404    9.225   12.332    2.672 
 630.40    2.162    9.089   12.750    2.682 
 630.50    1.963    8.757   13.364    2.671 
 630.60    2.116    8.543   13.727    2.656 
 630.70    2.369    8.298   13.580    2.652 
 630.80    2.661    8.219   12.296    2.636 
 630.90    2.716    8.328   11.736    2.630 
 631.00    2.827    8.796   12.103    2.646 
 631.10    2.820    8.901   12.494    2.664 
 631.20    2.669    8.742   12.584    2.659 
 631.30    2.418    8.600   12.428    2.623 
 631.40    2.231    8.578   13.101    2.620 
 631.50    2.085    8.633   12.820    2.623 
 631.60    1.958    8.358   12.846    2.627 
 631.70    1.737    8.409   13.270    2.625 
 631.80    1.515    8.347   13.402    2.619 
 631.90    1.515    8.114   14.069    2.602 
 632.00    1.718    7.989   14.687    2.586 
 632.10    1.987    7.615   16.116    2.561 
 632.20    2.080    7.339   16.700    2.536 
 632.30    2.136    6.884   16.835    2.487 
 632.40    2.104    6.783   16.200    2.459 
 632.50    2.216    6.921   15.545    2.443 
 632.60    2.225    7.251   13.503    2.462 
 632.70    2.209    7.582   12.216    2.525 
 632.80    2.001    8.307   11.304    2.581 
 632.90    1.953    8.927   11.439    2.630 
 633.00    1.902    9.405   11.362    2.648 
 633.10    1.835    9.411   11.455    2.689 
 633.20    1.684    9.484   10.545    2.716 
 633.30    1.538    9.465   10.394    2.735 
 633.40    1.428    9.876   10.371    2.747 
 633.50    1.395    9.870   10.562    2.753 
 633.60    1.434    9.751   11.055    2.750 
 633.70    1.548    9.501   11.063    2.729 
 633.80    1.811    9.075   12.487    2.693 
 633.90    2.067    8.950   13.947    2.648 
 634.00    2.159    8.292   15.494    2.590 
 634.10    2.157    7.664   16.154    2.556 
 634.20    2.604    7.043   17.025    2.528 
 634.30    3.395    6.618   18.797    2.490 
 634.40    3.475    6.248   20.725    2.438 
 634.50    3.105    5.726   21.336    2.352 
 634.60    2.517    5.389   21.811    2.296 
 634.70    2.249    5.332   22.439    2.246 
 634.80    2.107    5.378   22.020    2.260 
 634.90    2.103    5.303   21.209    2.282 
 635.00    2.138    5.378   20.366    2.338 
 635.10    2.092    5.496   19.916    2.353 
 635.20    1.911    5.616   19.326    2.354 
 635.30    2.019    5.648   17.915    2.342 
 635.40    2.226    5.776   18.286    2.327 
 635.50    2.317    6.096   18.987    2.304 
 635.60    2.391    6.085   19.879    2.308 
 635.70    2.250    5.916   19.401    2.316 
 635.80    2.299    5.749   19.335    2.343 
 635.90    2.310    5.867   19.876    2.336 
 636.00    2.282    5.956   20.435    2.342 
 636.10    2.499    5.964   18.310    2.351 
 636.20    3.126    5.946   15.861    2.381 
 636.30    4.369    6.387   14.476    2.430 
 636.40    5.732    6.812   15.260    2.469 
 636.50    6.298    7.154   17.124    2.461 
 636.60    5.949    7.015   17.406    2.393 
 636.70    4.910    6.677   15.702    2.377 
 636.80    4.248    6.666   14.398    2.406 
 636.90    3.672    7.225   12.812    2.463 
 637.00    3.326    7.808   12.388    2.485 
 637.10    3.104    8.430   11.737    2.522 
 637.20    3.528    8.485   12.530    2.585 
 637.30    4.912    8.528   13.562    2.608 
 637.40    6.845    8.151   13.448    2.576 
 637.50    9.079    7.734   12.914    2.513 
 637.60   10.804    7.630   12.752    2.490 
 637.70   11.675    7.611   14.775    2.472 
 637.80   11.296    7.522   17.689    2.427 
 637.90   10.432    7.010   18.701    2.365 
 638.00    9.072    6.459   17.314    2.321 
 638.10    8.371    6.458   15.054    2.357 
 638.20    7.530    6.941   14.116    2.433 
 638.30    6.708    7.612   13.274    2.524 
 638.40    5.590    7.831   13.737    2.578 
 638.50    4.599    7.965   14.000    2.589 
 638.60    4.070    7.874   15.058    2.563 
 638.70    4.252    8.001   14.054    2.514 
 638.80    4.600    7.865   12.717    2.536 
 638.90    4.723    8.252   11.477    2.605 
 639.00    4.096    8.717   11.130    2.676 
 639.10    3.329    9.163   11.406    2.693 
 639.20    2.911    9.191   11.670    2.686 
 639.30    2.848    8.957   12.213    2.668 
 639.40    2.771    8.834   12.486    2.633 
 639.50    2.855    8.677   13.072    2.599 
 639.60    3.000    8.564   13.675    2.595 
 639.70    2.997    8.258   14.625    2.613 
 639.80    3.063    7.963   15.105    2.611 
 639.90    3.173    7.510   15.398    2.584 
 640.00    3.627    7.269   15.756    2.557 
 640.10    3.972    7.062   16.119    2.510 
 640.20    3.793    6.956   17.470    2.478 
 640.30    3.765    6.796   18.285    2.436 
 640.40    3.586    6.528   17.933    2.434 
 640.50    3.598    6.471   16.891    2.412 
 640.60    3.334    6.664   15.452    2.439 
 640.70    3.347    6.943   14.092    2.492 
 640.80    3.502    7.272   13.596    2.533 
 640.90    3.532    7.708   14.143    2.538 
