~Version information
  VERS.                            1.20: CWLS LAS  -  VERSION 1.20
  WRAP.                              NO: One line per depth step
~Well information
# MNEM.UNIT
# ====.================================:===================
  STRT.M                       0.200000: First depth in file
  STOP.M                    1577.200000: Last depth in file
  STEP.M                       0.100000: Depth increment
  NULL.                         9999.99: Null values
  COMP.                         COMPANY:
  WELL.                            WELL:                    6280
  FLD .                           FIELD:                    Алексеевское мест-е
  CNTY.                          COUNTY:
  STAT.                           STATE: RUSSIA
  DATE.                        LOG DATE:                        28/09/2017
  SRVC.                   ООО ТНГ АЛГИС: ООО ТНГ АЛГИС
  UWI.           Unique Well Identifier:
~Parametr information block
# MNEM.UNIT
# ====.================================:===================
~Other information
# ------------------------- REMARKS  AREA ------------------

~Curve information
# MNEM.UNIT
# ====.================================:===================
  DEPTH .M                      :   1 Depth
  GK    .ur/h                   :   Гамма каротаж
  NKTD  .ue                     :   Нейтронный каротаж по тепловым нейтронам (большой зонд)
  WNK   .%                      :   Водородосодержание по НК
  NKTS  .ue                     :   Нейтронный каротаж по тепловым нейтронам (малый зонд)
~A Log        GK     NKTD      WNK     NKTS
# ...
 943.60    1.161    9.677   11.089    2.720 
 943.70    0.968    9.697   11.074    2.671 
 943.80    0.868    9.603   11.087    2.680 
 943.90    0.937    9.603   11.241    2.706 
 944.00    1.020    9.442   11.598    2.746 
 944.10    0.973    9.229   12.462    2.743 
 944.20    0.932    9.005   13.153    2.699 
 944.30    0.996    8.643   12.912    2.658 
 944.40    1.169    8.334   12.792    2.637 
 944.50    1.282    8.385   12.441    2.633 
 944.60    1.350    8.463   11.460    2.617 
 944.70    1.346    8.672   11.091    2.605 
 944.80    1.338    9.157   10.882    2.616 
 944.90    1.288    9.487   11.589    2.639 
 945.00    1.216    9.609   12.675    2.664 
 945.10    1.173    9.221   14.278    2.712 
 945.20    1.015    8.544   15.894    2.720 
 945.30    0.963    7.810   16.880    2.699 
 945.40    0.810    7.269   16.634    2.627 
 945.50    0.934    7.065   15.246    2.573 
 945.60    0.927    7.388   12.773    2.557 
 945.70    1.031    8.047   10.654    2.582 
 945.80    1.183    9.131    9.044    2.675 
 945.90    1.467   10.072    9.126    2.759 
 946.00    1.803   10.843    9.719    2.820 
 946.10    1.694   10.719   11.381    2.820 
 946.20    1.476   10.289   12.538    2.800 
 946.30    1.276    9.316   14.586    2.780 
 946.40    1.333    8.540   17.318    2.751 
 946.50    1.345    7.566   20.898    2.700 
 946.60    1.264    6.655   22.299    2.610 
 946.70    1.120    5.866   20.963    2.525 
 946.80    1.002    5.661   18.857    2.473 
 946.90    0.892    5.956   17.520    2.475 
 947.00    0.890    6.426   15.977    2.500 
 947.10    1.019    6.822   14.008    2.518 
 947.20    1.108    7.426   11.941    2.526 
 947.30    1.131    8.202   10.467    2.554 
 947.40    1.199    9.030    9.654    2.621 
 947.50    1.339    9.671    9.143    2.672 
 947.60    1.645   10.116    9.000    2.686 
 947.70    1.868   10.476    8.835    2.683 
 947.80    1.750   10.649    8.848    2.696 
 947.90    1.467   10.808    8.996    2.719 
 948.00    1.383   10.900    9.570    2.744 
 948.10    1.451   10.759    9.867    2.761 
 948.20    1.425   10.161   10.946    2.786 
 948.30    1.263    9.637   12.333    2.772 
 948.40    1.152    8.824   15.173    2.696 
 948.50    1.056    8.169   16.308    2.596 
 948.60    0.976    7.174   18.049    2.506 
 948.70    0.953    6.795   19.244    2.474 
 948.80    0.949    6.343   20.938    2.452 
 948.90    0.911    6.066   20.334    2.429 
 949.00    0.866    5.725   19.218    2.422 
 949.10    0.890    5.821   18.492    2.417 
 949.20    0.907    6.045   19.561    2.418 
 949.30    1.059    6.204   21.070    2.409 
 949.40    1.093    5.979   22.185    2.407 
 949.50    1.066    5.644   21.981    2.407 
 949.60    0.888    5.445   21.236    2.409 
 949.70    0.859    5.486   20.409    2.395 
 949.80    0.905    5.634   20.140    2.396 
 949.90    0.936    5.749   21.363    2.399 
 950.00    0.875    5.764   23.189    2.403 
 950.10    0.950    5.607   23.087    2.385 
 950.20    0.925    5.381   21.786    2.370 
 950.30    0.976    5.469   20.201    2.402 
 950.40    0.918    5.686   20.580    2.445 
 950.50    0.923    5.973   20.918    2.477 
 950.60    0.949    5.833   21.991    2.470 
 950.70    0.957    5.711   22.630    2.461 
 950.80    0.951    5.474   23.199    2.434 
 950.90    1.024    5.364   23.187    2.411 
 951.00    1.163    5.291   22.932    2.394 
 951.10    1.230    5.315   21.715    2.395 
 951.20    1.240    5.484   19.409    2.405 
 951.30    1.186    5.835   16.380    2.415 
 951.40    1.349    6.520   14.171    2.472 
 951.50    1.574    7.432   12.811    2.529 
 951.60    1.690    8.219   12.977    2.613 
 951.70    1.733    8.619   13.860    2.664 
 951.80    1.612    8.330   15.463    2.696 
 951.90    1.443    7.905   15.619    2.666 
 952.00    1.313    7.498   16.049    2.596 
 952.10    1.178    7.665   15.033    2.559 
 952.20    1.306    7.627   15.118    2.593 
 952.30    1.306    7.895   14.455    2.667 
 952.40    1.372    7.737   14.789    2.699 
 952.50    1.198    7.695   15.605    2.683 
 952.60    1.170    7.472   16.182    2.638 
 952.70    1.277    7.314   15.433    2.554 
 952.80    1.330    7.381   14.001    2.514 
 952.90    1.244    7.764   12.686    2.543 
 953.00    1.134    8.248   12.021    2.626 
 953.10    1.154    8.806   11.518    2.682 
 953.20    1.296    9.227   10.550    2.686 
 953.30    1.194    9.676    9.256    2.709 
 953.40    1.148   10.316    7.632    2.755 
 953.50    1.174   11.137    6.775    2.823 
 953.60    1.402   12.256    6.690    2.874 
 953.70    1.557   12.862    7.520    2.908 
 953.80    1.613   12.627    8.930    2.933 
 953.90    1.532   11.551   10.689    2.931 
 954.00    1.435   10.370   11.651    2.863 
 954.10    1.389    9.519   11.824    2.747 
 954.20    1.378    9.354   10.811    2.662 
 954.30    1.617    9.516    9.425    2.670 
 954.40    1.954   10.006    8.920    2.746 
 954.50    2.424   10.524    8.414    2.815 
 954.60    2.515   10.695    9.101    2.823 
 954.70    2.353   10.902    9.611    2.772 
 954.80    1.905   10.592   10.198    2.744 
 954.90    1.757   10.252   10.993    2.723 
 955.00    1.635    9.897   11.228    2.744 
 955.10    1.684    9.465   12.134    2.726 
 955.20    1.557    9.338   12.135    2.710 
 955.30    1.500    8.936   11.616    2.694 
 955.40    1.507    8.968   10.898    2.687 
 955.50    1.480    9.332   10.001    2.682 
 955.60    1.552    9.799    9.740    2.691 
 955.70    1.719   10.251    9.715    2.735 
 955.80    1.991   10.266   10.232    2.776 
 955.90    2.310   10.117   10.908    2.780 
 956.00    2.311    9.758   11.744    2.748 
 956.10    2.229    9.392   11.217    2.704 
 956.20    1.981    9.134    9.247    2.676 
 956.30    2.095    9.382    8.329    2.662 
 956.40    2.349   10.205    8.342    2.693 
 956.50    2.807   10.783    8.448    2.699 
 956.60    3.291   11.020    7.786    2.663 
 956.70    3.256   11.370    7.443    2.681 
 956.80    2.953   11.885    7.956    2.742 
 956.90    2.227   12.045    8.801    2.845 
 957.00    1.976   11.546   10.290    2.869 
 957.10    1.978   10.921   10.722    2.852 
 957.20    2.084   10.192   11.516    2.813 
 957.30    2.100    9.956   11.934    2.785 
 957.40    2.148    9.422   12.891    2.803 
 957.50    2.155    9.004   13.646    2.797 
 957.60    2.193    8.440   14.406    2.748 
 957.70    2.240    8.071   15.399    2.678 
 957.80    2.458    7.662   15.483    2.620 
 957.90    2.951    7.246   15.835    2.589 
 958.00    3.334    7.135   16.921    2.538 
 958.10    3.202    7.093   18.010    2.499 
 958.20    2.641    6.958   16.993    2.469 
 958.30    2.024    6.958   14.780    2.489 
 958.40    2.015    7.463   12.533    2.547 
 958.50    2.380    8.289   11.431    2.652 
 958.60    2.997    8.996   11.110    2.739 
 958.70    3.474    8.880   11.597    2.788 
 958.80    3.923    8.034   14.735    2.749 
 958.90    4.513    7.132   18.081    2.580 
 959.00    5.267    6.434   18.528    2.299 
 959.10    5.837    6.276   14.450    2.088 
 959.20    5.190    6.796   10.842    2.160 
 959.30    3.973    8.266    9.315    2.399 
 959.40    2.550    9.855    9.096    2.640 
 959.50    1.767   10.724    8.901    2.743 
 959.60    1.439   10.772    8.514    2.784 
 959.70    1.343   10.889    8.333    2.809 
 959.80    1.691   11.050    8.482    2.789 
 959.90    2.748   10.897    9.061    2.791 
 960.00    4.677   10.256   10.322    2.775 
 960.10    7.211    9.588   12.229    2.710 
 960.20    8.721    9.154   13.592    2.571 
 960.30    8.681    8.696   12.800    2.478 
 960.40    6.542    8.304   12.598    2.522 
 960.50    4.433    8.362   13.914    2.621 
 960.60    2.700    8.015   18.613    2.658 
 960.70    2.180    7.363   22.175    2.585 
 960.80    1.820    5.961   23.412    2.456 
 960.90    1.658    5.098   25.502    2.389 
 961.00    1.495    4.703   26.130    2.323 
 961.10    1.427    4.395   27.020    2.243 
 961.20    1.423    4.483   25.387    2.152 
 961.30    1.489    4.571   22.964    2.143 
