~Version information
  VERS.                            1.20: CWLS LAS  -  VERSION 1.20
  WRAP.                              NO: One line per depth step
~Well information
# MNEM.UNIT
# ====.================================:===================
  STRT.M                       0.200000: First depth in file
  STOP.M                    1577.200000: Last depth in file
  STEP.M                       0.100000: Depth increment
  NULL.                         9999.99: Null values
  COMP.                         COMPANY:
  WELL.                            WELL:                    6280
  FLD .                           FIELD:                    Алексеевское мест-е
  CNTY.                          COUNTY:
  STAT.                           STATE: RUSSIA
  DATE.                        LOG DATE:                        28/09/2017
  SRVC.                   ООО ТНГ АЛГИС: ООО ТНГ АЛГИС
  UWI.           Unique Well Identifier:
~Parametr information block
# MNEM.UNIT
# ====.================================:===================
~Other information
# ------------------------- REMARKS  AREA ------------------

~Curve information
# MNEM.UNIT
# ====.================================:===================
  DEPTH .M                      :   1 Depth
  GK    .ur/h                   :   Гамма каротаж
  NKTD  .ue                     :   Нейтронный каротаж по тепловым нейтронам (большой зонд)
  WNK   .%                      :   Водородосодержание по НК
  NKTS  .ue                     :   Нейтронный каротаж по тепловым нейтронам (малый зонд)
~A Log        GK     NKTD      WNK     NKTS
# ...
 516.40    7.175    7.536   15.480    2.507 
 516.50    5.389    7.463   14.781    2.534 
 516.60    3.804    7.634   13.601    2.588 
 516.70    2.870    7.833   13.479    2.634 
 516.80    2.455    8.086   13.837    2.642 
 516.90    2.205    8.029   15.332    2.635 
 517.00    2.191    7.800   15.023    2.589 
 517.10    2.359    7.427   14.367    2.557 
 517.20    2.346    7.672   13.046    2.522 
 517.30    2.390    7.875   12.982    2.555 
 517.40    2.489    8.242   13.942    2.606 
 517.50    2.972    8.137   15.735    2.604 
 517.60    3.853    7.751   16.849    2.576 
 517.70    4.420    7.215   16.840    2.536 
 517.80    4.630    6.943   15.231    2.518 
 517.90    4.234    7.081   14.520    2.522 
 518.00    3.798    7.648   14.057    2.534 
 518.10    3.388    7.950   14.124    2.584 
 518.20    3.025    8.082   13.998    2.620 
 518.30    2.733    7.968   14.820    2.646 
 518.40    2.442    7.867   15.130    2.638 
 518.50    2.490    7.431   15.901    2.608 
 518.60    2.826    7.079   16.366    2.562 
 518.70    3.175    6.625   18.842    2.504 
 518.80    3.073    6.437   20.184    2.415 
 518.90    2.818    6.060   19.376    2.331 
 519.00    2.576    6.012   17.743    2.307 
 519.10    2.821    6.244   16.376    2.381 
 519.20    3.023    6.545   16.062    2.475 
 519.30    3.018    6.797   17.502    2.500 
 519.40    3.016    6.883   18.530    2.471 
 519.50    3.182    6.562   19.611    2.436 
 519.60    3.145    6.303   19.250    2.437 
 519.70    2.863    6.031   19.355    2.455 
 519.80    2.366    6.075   20.255    2.449 
 519.90    2.369    6.021   20.135    2.434 
 520.00    2.226    5.807   20.273    2.421 
 520.10    2.246    5.747   20.493    2.409 
 520.20    2.170    5.709   21.113    2.397 
 520.30    2.045    5.690   20.712    2.362 
 520.40    1.806    5.610   19.756    2.358 
 520.50    1.715    5.674   18.226    2.368 
 520.60    1.881    5.838   18.130    2.383 
 520.70    2.105    6.127   18.852    2.378 
 520.80    2.359    6.132   20.008    2.369 
 520.90    2.535    5.927   20.008    2.354 
 521.00    2.436    5.619   21.180    2.348 
 521.10    2.491    5.487   23.522    2.329 
 521.20    2.610    5.218   24.919    2.300 
 521.30    2.853    4.853   24.515    2.246 
 521.40    2.930    4.695   22.244    2.222 
 521.50    2.672    4.865   21.521    2.229 
 521.60    2.778    5.378   19.997    2.250 
 521.70    3.004    5.735   18.383    2.303 
 521.80    3.495    6.182   16.859    2.371 
 521.90    3.708    6.606   15.636    2.470 
 522.00    4.015    7.024   15.904    2.529 
 522.10    4.101    7.355   15.807    2.553 
 522.20    3.761    7.337   15.975    2.565 
 522.30    2.921    7.375   16.038    2.561 
 522.40    2.274    7.275   16.133    2.582 
 522.50    2.035    7.184   17.116    2.585 
 522.60    2.218    7.095   16.557    2.567 
 522.70    2.338    6.785   16.295    2.541 
 522.80    2.340    6.823   15.785    2.519 
 522.90    2.063    6.717   17.175    2.502 
 523.00    1.985    6.776   19.328    2.463 
 523.10    2.112    6.416   18.615    2.400 
 523.20    2.266    5.988   18.093    2.374 
 523.30    2.339    6.121   17.307    2.371 
 523.40    2.308    6.243   17.854    2.393 
 523.50    2.349    6.498   18.189    2.385 
 523.60    2.407    6.448   18.166    2.387 
 523.70    2.722    6.392   17.023    2.413 
 523.80    3.170    6.358   15.766    2.444 
 523.90    3.257    6.623   14.835    2.452 
 524.00    3.252    6.941   15.693    2.438 
 524.10    2.897    7.133   16.109    2.433 
 524.20    2.689    6.753   17.190    2.429 
 524.30    2.357    6.414   18.850    2.405 
 524.40    2.123    5.973   21.957    2.357 
 524.50    2.150    5.570   23.775    2.275 
 524.60    2.126    5.113   22.547    2.208 
 524.70    2.218    4.936   20.894    2.189 
 524.80    2.176    5.152   21.100    2.234 
 524.90    2.170    5.435   23.268    2.285 
 525.00    2.390    5.357   24.393    2.294 
 525.10    2.659    4.990   23.971    2.292 
 525.20    2.863    4.813   23.429    2.275 
 525.30    2.650    4.838   22.374    2.273 
 525.40    2.594    4.782   23.378    2.270 
 525.50    2.677    4.710   25.979    2.253 
 525.60    2.847    4.399   28.594    2.189 
 525.70    2.628    4.106   29.245    2.086 
 525.80    2.567    3.967   29.687    2.011 
 525.90    2.925    4.020   29.103    2.031 
 526.00    3.408    4.035   28.511    2.113 
 526.10    3.865    4.124   28.497    2.180 
 526.20    4.068    4.200   29.443    2.214 
 526.30    4.393    4.180   28.411    2.228 
 526.40    4.450    4.073   27.793    2.233 
 526.50    4.485    4.224   28.289    2.221 
 526.60    4.440    4.368   27.163    2.221 
 526.70    4.236    4.332   26.645    2.239 
 526.80    3.963    4.473   25.564    2.276 
 526.90    3.686    4.492   26.190    2.288 
 527.00    3.693    4.603   26.144    2.289 
 527.10    3.629    4.483   27.309    2.265 
 527.20    3.604    4.493   27.987    2.249 
 527.30    3.262    4.384   27.969    2.231 
 527.40    2.950    4.341   27.456    2.233 
 527.50    2.906    4.283   26.162    2.253 
 527.60    3.182    4.224   25.321    2.274 
 527.70    3.409    4.167   27.173    2.242 
 527.80    3.146    4.156   30.505    2.180 
 527.90    2.553    4.009   31.983    2.072 
 528.00    2.097    3.846   30.181    2.016 
 528.10    1.916    3.838   27.448    2.053 
 528.20    2.045    4.030   26.684    2.157 
 528.30    2.181    4.311   25.833    2.237 
 528.40    2.446    4.436   25.846    2.241 
 528.50    2.620    4.707   24.362    2.224 
 528.60    2.703    4.935   22.438    2.240 
 528.70    2.698    5.302   21.224    2.318 
 528.80    2.749    5.647   20.805    2.431 
 528.90    3.319    5.813   21.688    2.499 
 529.00    3.940    5.884   21.244    2.506 
 529.10    4.877    5.683   21.600    2.479 
 529.20    5.798    5.748   22.728    2.474 
 529.30    6.931    5.651   23.183    2.461 
 529.40    7.838    5.486   22.501    2.453 
 529.50    7.896    5.521   20.838    2.440 
 529.60    7.554    5.761   20.108    2.457 
 529.70    6.683    6.161   18.685    2.509 
 529.80    6.323    6.320   18.633    2.561 
 529.90    6.182    6.593   18.202    2.594 
 530.00    6.593    6.575   17.864    2.595 
 530.10    6.732    6.573   16.730    2.576 
 530.20    6.662    6.506   17.479    2.564 
 530.30    6.448    6.530   18.960    2.523 
 530.40    6.987    6.143   23.084    2.467 
 530.50    7.133    5.692   25.092    2.373 
 530.60    7.309    4.956   25.306    2.296 
 530.70    7.149    4.667   24.559    2.245 
 530.80    7.202    4.627   23.142    2.245 
 530.90    7.394    4.657   24.053    2.249 
 531.00    7.251    4.810   24.595    2.243 
 531.10    7.095    4.581   26.433    2.208 
 531.20    6.715    4.456   26.597    2.183 
 531.30    6.499    4.251   26.162    2.138 
 531.40    6.287    4.409   25.756    2.115 
 531.50    6.653    4.715   22.847    2.130 
 531.60    6.844    5.013   20.143    2.220 
 531.70    7.266    5.584   19.184    2.345 
 531.80    7.167    6.126   19.791    2.463 
 531.90    7.008    6.332   18.790    2.510 
 532.00    6.661    6.268   16.991    2.519 
 532.10    6.198    6.504   15.590    2.518 
 532.20    5.807    6.818   16.279    2.546 
 532.30    5.767    7.102   17.011    2.550 
 532.40    5.867    6.899   17.794    2.502 
 532.50    5.750    6.694   18.510    2.468 
 532.60    5.710    6.325   19.204    2.464 
 532.70    5.246    5.905   21.642    2.458 
 532.80    4.959    5.529   24.363    2.392 
 532.90    4.517    5.049   26.622    2.292 
 533.00    4.564    4.731   25.246    2.200 
 533.10    5.230    4.627   22.999    2.183 
 533.20    5.814    4.928   21.793    2.229 
 533.30    6.687    5.283   21.931    2.332 
 533.40    7.542    5.407   23.091    2.385 
 533.50    7.925    5.367   23.381    2.386 
 533.60    7.356    5.196   22.921    2.349 
 533.70    6.184    5.109   21.121    2.343 
 533.80    5.348    5.064   20.545    2.354 
 533.90    4.922    5.195   22.588    2.336 
 534.00    4.698    5.177   25.275    2.282 
 534.10    4.599    4.859   27.639    2.208 
