~Version information
  VERS.                            1.20: CWLS LAS  -  VERSION 1.20
  WRAP.                              NO: One line per depth step
~Well information
# MNEM.UNIT
# ====.================================:===================
  STRT.M                       0.200000: First depth in file
  STOP.M                    1577.200000: Last depth in file
  STEP.M                       0.100000: Depth increment
  NULL.                         9999.99: Null values
  COMP.                         COMPANY:
  WELL.                            WELL:                    6280
  FLD .                           FIELD:                    Алексеевское мест-е
  CNTY.                          COUNTY:
  STAT.                           STATE: RUSSIA
  DATE.                        LOG DATE:                        28/09/2017
  SRVC.                   ООО ТНГ АЛГИС: ООО ТНГ АЛГИС
  UWI.           Unique Well Identifier:
~Parametr information block
# MNEM.UNIT
# ====.================================:===================
~Other information
# ------------------------- REMARKS  AREA ------------------

~Curve information
# MNEM.UNIT
# ====.================================:===================
  DEPTH .M                      :   1 Depth
  GK    .ur/h                   :   Гамма каротаж
  NKTD  .ue                     :   Нейтронный каротаж по тепловым нейтронам (большой зонд)
  WNK   .%                      :   Водородосодержание по НК
  NKTS  .ue                     :   Нейтронный каротаж по тепловым нейтронам (малый зонд)
~A Log        GK     NKTD      WNK     NKTS
# ...
1157.20    6.630    9.473   11.906    2.795 
1157.30    6.531    9.695   12.545    2.835 
1157.40    6.532    9.334   12.832    2.825 
1157.50    6.474    8.768   13.565    2.824 
1157.60    6.499    8.498   14.560    2.772 
1157.70    6.529    8.149   14.482    2.680 
1157.80    6.199    7.861   13.867    2.631 
1157.90    6.003    7.777   13.090    2.605 
1158.00    5.609    7.870   13.944    2.620 
1158.10    5.509    7.955   15.019    2.584 
1158.20    5.582    7.511   16.683    2.548 
1158.30    6.012    7.010   17.189    2.491 
1158.40    6.507    6.424   17.405    2.440 
1158.50    7.114    6.195   17.862    2.381 
1158.60    7.191    6.112   18.532    2.330 
1158.70    7.401    6.094   18.926    2.291 
1158.80    7.518    6.030   17.460    2.278 
1158.90    8.042    6.081   15.924    2.310 
1159.00    8.095    6.488   15.100    2.343 
1159.10    7.457    7.122   15.684    2.396 
1159.20    6.872    7.615   15.654    2.424 
1159.30    6.616    7.645   15.006    2.508 
1159.40    6.662    7.699   13.441    2.595 
1159.50    6.094    7.878   12.946    2.667 
1159.60    5.537    8.351   13.133    2.683 
1159.70    5.141    8.610   13.238    2.675 
1159.80    5.289    8.652   12.419    2.655 
1159.90    5.861    8.804   11.158    2.679 
1160.00    6.550    9.214   10.354    2.715 
1160.10    6.812    9.767   10.860    2.775 
1160.20    6.784   10.122   11.404    2.801 
1160.30    6.759    9.732   12.181    2.801 
1160.40    7.272    9.240   11.733    2.793 
1160.50    7.529    8.578   12.792    2.752 
1160.60    7.931    8.417   14.399    2.681 
1160.70    7.662    7.790   16.551    2.580 
1160.80    7.473    7.071   15.806    2.480 
1160.90    7.022    6.325   15.841    2.408 
1161.00    6.881    6.471   15.918    2.341 
1161.10    6.896    6.643   17.152    2.283 
1161.20    6.438    7.013   16.380    2.268 
1161.30    5.672    6.994   14.317    2.332 
1161.40    4.725    7.342   12.797    2.469 
1161.50    4.302    7.935   12.439    2.582 
1161.60    4.227    8.432   12.626    2.632 
1161.70    4.718    8.619   11.668    2.619 
1161.80    5.258    8.712   10.466    2.607 
1161.90    5.516    9.228    9.889    2.622 
1162.00    5.375    9.777   10.728    2.673 
1162.10    5.060    9.922   12.359    2.711 
1162.20    5.219    9.226   14.671    2.713 
1162.30    5.394    8.335   16.647    2.676 
1162.40    5.627    7.574   16.658    2.593 
1162.50    5.559    7.234   15.070    2.527 
1162.60    5.683    7.373   13.188    2.536 
1162.70    5.919    7.740   13.028    2.620 
1162.80    6.051    8.017   14.072    2.672 
1162.90    5.739    7.788   15.703    2.634 
1163.00    5.569    7.257   17.237    2.521 
1163.10    5.574    6.725   17.824    2.432 
1163.20    5.929    6.188   18.060    2.370 
1163.30    5.945    5.836   19.084    2.348 
1163.40    6.267    5.537   20.320    2.292 
1163.50    6.619    5.214   22.382    2.210 
1163.60    7.442    5.040   22.950    2.115 
1163.70    8.158    4.857   23.524    2.066 
1163.80    8.518    4.950   23.490    2.085 
1163.90    8.415    5.018   22.225    2.151 
1164.00    8.663    5.120   22.018    2.232 
1164.10    9.120    5.367   21.963    2.304 
1164.20   10.127    5.474   22.024    2.349 
1164.30   11.237    5.580   20.820    2.365 
1164.40   11.532    5.670   19.225    2.396 
1164.50   10.869    5.777   18.275    2.438 
1164.60    9.922    5.819   18.363    2.482 
1164.70   10.171    5.729   20.963    2.431 
1164.80   10.600    5.600   23.531    2.317 
1164.90   10.066    5.138   24.572    2.205 
1165.00    9.123    4.688   22.267    2.162 
1165.10    8.944    4.466   21.754    2.172 
1165.20    9.135    4.712   21.827    2.153 
1165.30    9.518    4.795   24.076    2.118 
1165.40    9.797    4.892   24.301    2.079 
1165.50   10.330    4.645   24.305    2.081 
1165.60   10.518    4.587   25.369    2.128 
1165.70   10.852    4.432   26.844    2.170 
1165.80   10.760    4.220   29.182    2.158 
1165.90   10.469    4.060   28.899    2.085 
1166.00   10.171    3.880   28.499    2.050 
1166.10    9.917    3.857   27.689    2.059 
1166.20   10.006    3.714   26.776    2.101 
1166.30    9.705    3.595   27.751    2.072 
1166.40    9.559    3.628   31.506    1.974 
1166.50    9.338    3.695   32.611    1.868 
1166.60    8.984    3.629   29.350    1.837 
1166.70    9.216    3.778   23.917    1.923 
1166.80   10.359    4.239   20.946    2.090 
1166.90   11.843    4.968   19.910    2.238 
1167.00   12.503    5.396   21.114    2.306 
1167.10   11.897    5.601   23.107    2.309 
1167.20   10.337    5.444   24.171    2.280 
1167.30    8.963    5.239   23.190    2.284 
1167.40    8.066    5.233   20.978    2.313 
1167.50    7.693    5.497   18.166    2.375 
1167.60    8.008    6.051   16.881    2.452 
1167.70    7.885    6.872   15.135    2.498 
1167.80    7.652    7.568   13.805    2.559 
1167.90    7.299    8.318   12.103    2.634 
1168.00    7.403    8.759   11.634    2.766 
1168.10    7.810    9.224   12.252    2.839 
1168.20    7.813    9.330   12.655    2.829 
1168.30    7.774    9.128   11.769    2.764 
1168.40    7.548    8.974   10.405    2.736 
1168.50    7.891    9.188    9.549    2.754 
1168.60    8.061    9.584    9.867    2.757 
1168.70    8.368    9.772   10.896    2.712 
1168.80    8.191    9.608   11.732    2.651 
1168.90    8.406    9.293   12.415    2.590 
1169.00    8.527    9.129   12.511    2.588 
1169.10    8.982    8.857   13.156    2.632 
1169.20    9.370    8.563   14.211    2.690 
1169.30    9.708    8.065   15.880    2.692 
1169.40    9.701    7.515   16.772    2.614 
1169.50    9.342    6.975   17.328    2.533 
1169.60    9.172    6.700   18.213    2.469 
1169.70    8.971    6.516   18.401    2.452 
1169.80    9.158    6.374   17.719    2.438 
1169.90    9.288    6.513   15.616    2.422 
1170.00    9.664    7.008   14.090    2.448 
1170.10   10.053    7.854   12.236    2.518 
1170.20   11.074    8.507   10.946    2.643 
1170.30   11.617    9.255   10.156    2.732 
1170.40   11.771    9.821   10.038    2.781 
1170.50   11.099   10.075   10.930    2.790 
1170.60   10.792    9.944   11.748    2.789 
1170.70   10.846    9.513   12.204    2.753 
1170.80   10.798    9.249   11.878    2.701 
1170.90   10.593    9.131   11.560    2.699 
1171.00   10.335    9.241   11.166    2.727 
1171.10   10.403    9.284   11.167    2.749 
1171.20   10.500    9.437   11.535    2.741 
1171.30   10.569    9.394   12.514    2.714 
1171.40   10.595    9.206   12.621    2.708 
1171.50   10.477    8.926   11.637    2.696 
1171.60   10.034    9.103   10.567    2.688 
1171.70    9.665    9.739    9.568    2.725 
1171.80    9.604   10.256    8.849    2.792 
1171.90    9.768   10.717    8.640    2.857 
1172.00    9.816   11.117    9.025    2.859 
1172.10    9.749   11.156   10.260    2.843 
1172.20    9.474   10.773   11.856    2.842 
1172.30    9.139    9.955   13.326    2.821 
1172.40    8.879    9.401   12.423    2.779 
1172.50    8.972    9.147   10.664    2.734 
1172.60    9.099    9.930    8.974    2.786 
1172.70    8.847   10.968    8.792    2.894 
1172.80    8.285   11.824    8.935    3.019 
1172.90    8.038   11.769    9.320    3.072 
1173.00    8.243   11.343   10.094    3.042 
1173.10    8.772   10.829   11.160    3.000 
1173.20    9.499   10.283   11.787    2.913 
1173.30    9.726    9.831   10.936    2.837 
1173.40    9.837    9.736   10.453    2.801 
1173.50    9.582   10.071    9.616    2.820 
1173.60    9.525   10.373    9.596    2.876 
1173.70    9.467   10.953    9.105    2.858 
1173.80    9.992   11.309    8.481    2.876 
1173.90   10.516   11.813    7.764    2.913 
1174.00   10.834   12.226    7.350    3.005 
1174.10   10.644   12.515    7.504    3.060 
1174.20   11.023   12.550    8.306    3.065 
1174.30   11.445   12.195    9.109    3.017 
1174.40   11.819   11.664    9.602    2.956 
1174.50   12.101   11.201    9.598    2.898 
1174.60   12.179   10.942    9.877    2.897 
1174.70   12.316   10.862   11.142    2.902 
1174.80   11.962   10.556   11.570    2.908 
1174.90   11.565    9.873   11.778    2.886 
