~Version information
  VERS.                            1.20: CWLS LAS  -  VERSION 1.20
  WRAP.                              NO: One line per depth step
~Well information
# MNEM.UNIT
# ====.================================:===================
  STRT.M                       0.200000: First depth in file
  STOP.M                    1577.200000: Last depth in file
  STEP.M                       0.100000: Depth increment
  NULL.                         9999.99: Null values
  COMP.                         COMPANY:
  WELL.                            WELL:                    6280
  FLD .                           FIELD:                    Алексеевское мест-е
  CNTY.                          COUNTY:
  STAT.                           STATE: RUSSIA
  DATE.                        LOG DATE:                        28/09/2017
  SRVC.                   ООО ТНГ АЛГИС: ООО ТНГ АЛГИС
  UWI.           Unique Well Identifier:
~Parametr information block
# MNEM.UNIT
# ====.================================:===================
~Other information
# ------------------------- REMARKS  AREA ------------------

~Curve information
# MNEM.UNIT
# ====.================================:===================
  DEPTH .M                      :   1 Depth
  GK    .ur/h                   :   Гамма каротаж
  NKTD  .ue                     :   Нейтронный каротаж по тепловым нейтронам (большой зонд)
  WNK   .%                      :   Водородосодержание по НК
  NKTS  .ue                     :   Нейтронный каротаж по тепловым нейтронам (малый зонд)
~A Log        GK     NKTD      WNK     NKTS
# ...
 730.00    4.678    8.154   15.453    2.555 
 730.10    4.142    7.567   14.969    2.500 
 730.20    3.726    7.391   14.159    2.486 
 730.30    3.551    7.585   13.820    2.504 
 730.40    3.483    7.841   13.407    2.555 
 730.50    3.487    7.932   13.117    2.571 
 730.60    3.325    8.071   13.756    2.571 
 730.70    3.086    8.091   14.805    2.563 
 730.80    2.997    7.781   15.662    2.563 
 730.90    2.950    7.346   14.800    2.537 
 731.00    3.019    7.122   14.218    2.507 
 731.10    2.949    7.261   14.042    2.473 
 731.20    2.777    7.364   14.261    2.482 
 731.30    2.413    7.255   14.967    2.444 
 731.40    1.849    7.082   15.975    2.420 
 731.50    1.370    6.828   16.984    2.367 
 731.60    1.306    6.620   16.922    2.331 
 731.70    1.402    6.493   16.186    2.314 
 731.80    1.692    6.649   15.137    2.336 
 731.90    1.760    6.909   15.180    2.382 
 732.00    1.761    7.279   14.466    2.434 
 732.10    1.609    7.241   13.546    2.458 
 732.20    1.521    7.415   12.421    2.484 
 732.30    1.492    7.708   12.422    2.476 
 732.40    1.603    8.181   12.210    2.462 
 732.50    1.852    8.315   12.241    2.462 
 732.60    2.128    8.445   10.876    2.487 
 732.70    2.411    8.501   10.217    2.528 
 732.80    2.964    8.976    9.304    2.543 
 732.90    4.022    9.173   10.185    2.563 
 733.00    5.755    9.506   10.888    2.540 
 733.10    7.314    9.186   11.522    2.514 
 733.20    7.730    8.960   12.347    2.488 
 733.30    7.068    8.532   13.857    2.514 
 733.40    5.553    7.830   17.453    2.537 
 733.50    4.348    7.044   19.854    2.489 
 733.60    3.110    6.075   22.366    2.373 
 733.70    2.506    5.545   24.233    2.280 
 733.80    2.332    5.097   24.802    2.269 
 733.90    2.422    4.791   24.150    2.257 
 734.00    2.202    4.753   23.112    2.256 
 734.10    1.886    4.862   23.771    2.249 
 734.20    1.793    5.006   24.149    2.270 
 734.30    1.847    4.888   23.548    2.276 
 734.40    1.802    4.875   22.028    2.269 
 734.50    1.726    5.089   20.949    2.262 
 734.60    1.644    5.468   17.960    2.283 
 734.70    1.734    5.831   15.415    2.339 
 734.80    1.816    6.629   12.504    2.394 
 734.90    2.209    7.343   10.932    2.464 
 735.00    2.505    8.053   11.457    2.522 
 735.10    2.913    8.363   13.053    2.534 
 735.20    3.742    8.192   13.769    2.457 
 735.30    4.342    7.951   11.665    2.373 
 735.40    4.224    8.053   10.243    2.383 
 735.50    3.265    8.941    9.597    2.486 
 735.60    2.549    9.574   10.325    2.597 
 735.70    2.496    9.835   10.346    2.626 
 735.80    2.676    9.528   10.161    2.627 
 735.90    2.597    9.650    9.356    2.613 
 736.00    2.243    9.828    9.017    2.625 
 736.10    1.869   10.032    9.153    2.662 
 736.20    1.715    9.694   11.055    2.686 
 736.30    1.854    9.136   13.588    2.633 
 736.40    2.160    8.151   15.481    2.500 
 736.50    2.195    7.429   15.191    2.373 
 736.60    1.897    7.124   13.914    2.327 
 736.70    1.374    7.442   13.011    2.377 
 736.80    1.097    7.971   12.381    2.465 
 736.90    0.998    8.378   12.535    2.546 
 737.00    1.131    8.624   12.111    2.586 
 737.10    1.361    8.681   11.526    2.615 
 737.20    1.577    8.934    9.889    2.617 
 737.30    1.649    9.241    9.296    2.653 
 737.40    1.803    9.770    9.616    2.678 
 737.50    2.265    9.776   11.731    2.697 
 737.60    3.066    9.274   13.982    2.634 
 737.70    3.351    8.202   15.202    2.558 
 737.80    3.232    7.256   16.130    2.466 
 737.90    3.074    6.788   17.776    2.416 
 738.00    3.114    6.516   19.241    2.361 
 738.10    3.036    6.178   19.700    2.323 
 738.20    2.617    5.894   19.010    2.313 
 738.30    2.380    5.902   17.835    2.335 
 738.40    2.321    6.080   17.365    2.348 
 738.50    2.125    6.367   17.838    2.390 
 738.60    2.072    6.373   18.936    2.403 
 738.70    2.174    6.097   20.554    2.412 
 738.80    2.469    5.747   21.838    2.372 
 738.90    2.625    5.413   21.254    2.309 
 739.00    2.461    5.335   19.925    2.265 
 739.10    2.476    5.577   18.121    2.257 
 739.20    2.329    6.058   17.333    2.321 
 739.30    2.264    6.621   16.738    2.381 
 739.40    1.856    6.883   16.059    2.472 
 739.50    1.767    7.037   15.092    2.534 
 739.60    2.115    7.255   13.931    2.559 
 739.70    2.661    7.615   12.888    2.558 
 739.80    2.992    8.041   12.341    2.569 
 739.90    3.543    8.337   11.850    2.594 
 740.00    4.388    8.429   12.029    2.611 
 740.10    4.992    8.489   12.789    2.588 
 740.20    4.699    8.350   14.559    2.553 
 740.30    3.800    8.035   16.079    2.515 
 740.40    3.252    7.511   15.514    2.494 
 740.50    2.988    7.115   14.222    2.483 
 740.60    3.102    7.241   12.789    2.504 
 740.70    3.462    7.530   12.608    2.521 
 740.80    4.168    8.072   12.700    2.509 
 740.90    4.837    8.381   11.990    2.475 
 741.00    5.516    8.580   10.633    2.495 
 741.10    6.083    8.774    9.873    2.569 
 741.20    6.185    9.084   10.577    2.641 
 741.30    5.711    9.253   12.092    2.616 
 741.40    5.351    9.011   12.963    2.541 
 741.50    5.665    8.496   13.092    2.493 
 741.60    6.391    8.095   13.748    2.513 
 741.70    6.341    7.861   14.422    2.545 
 741.80    5.427    7.505   14.770    2.521 
 741.90    4.162    7.260   15.494    2.462 
 742.00    3.281    7.207   15.695    2.418 
 742.10    2.809    7.142   14.911    2.406 
 742.20    2.472    7.285   13.850    2.423 
 742.30    2.407    7.715   13.052    2.473 
 742.40    2.572    8.099   12.371    2.543 
 742.50    2.787    8.237   12.144    2.609 
 742.60    2.853    8.259   12.087    2.621 
 742.70    2.732    8.219   12.975    2.575 
 742.80    3.022    8.243   13.414    2.505 
 742.90    3.149    7.924   14.164    2.468 
 743.00    3.516    7.832   15.366    2.468 
 743.10    3.373    7.603   15.670    2.469 
 743.20    3.200    7.324   15.216    2.488 
 743.30    2.874    7.175   13.955    2.493 
 743.40    2.675    7.259   14.299    2.523 
 743.50    2.659    7.613   15.163    2.502 
 743.60    2.555    7.617   16.490    2.485 
 743.70    2.264    7.466   15.845    2.475 
 743.80    2.127    7.139   15.728    2.512 
 743.90    2.032    7.214   15.313    2.551 
 744.00    1.968    7.126   15.869    2.570 
 744.10    1.970    7.154   16.386    2.533 
 744.20    2.041    7.012   16.522    2.490 
 744.30    2.231    6.911   16.637    2.459 
 744.40    2.060    6.887   16.345    2.464 
 744.50    1.902    6.842   16.828    2.478 
 744.60    1.819    6.935   17.328    2.483 
 744.70    1.900    6.800   17.484    2.477 
 744.80    1.959    6.662   17.339    2.483 
 744.90    1.982    6.528   16.568    2.480 
 745.00    2.062    6.520   16.676    2.476 
 745.10    2.283    6.728   16.122    2.440 
 745.20    2.238    6.760   15.723    2.425 
 745.30    2.190    6.913   15.665    2.429 
 745.40    2.151    6.978   16.274    2.451 
 745.50    2.461    6.999   17.251    2.453 
 745.60    2.693    6.772   18.030    2.438 
 745.70    2.663    6.512   18.189    2.440 
 745.80    2.440    6.247   18.553    2.418 
 745.90    2.304    6.196   18.561    2.414 
 746.00    2.269    6.123   18.729    2.383 
 746.10    2.579    6.168   17.571    2.378 
 746.20    2.740    6.197   16.322    2.381 
 746.30    2.826    6.531   15.524    2.399 
 746.40    2.514    6.921   15.492    2.425 
 746.50    2.112    7.207   16.046    2.449 
 746.60    1.866    7.213   15.810    2.475 
 746.70    1.852    7.030   16.188    2.498 
 746.80    1.951    7.059   16.316    2.497 
 746.90    2.064    6.916   18.058    2.488 
 747.00    1.965    6.910   17.337    2.475 
 747.10    2.004    6.594   14.426    2.461 
 747.20    2.045    6.933   11.973    2.471 
 747.30    2.255    7.831   11.203    2.518 
 747.40    2.665    8.725   11.931    2.578 
 747.50    3.029    8.973   12.676    2.596 
 747.60    3.418    8.621   13.341    2.599 
 747.70    3.287    8.147   14.838    2.579 
