~Version information
  VERS.                            1.20: CWLS LAS  -  VERSION 1.20
  WRAP.                              NO: One line per depth step
~Well information
# MNEM.UNIT
# ====.================================:===================
  STRT.M                       0.200000: First depth in file
  STOP.M                    1577.200000: Last depth in file
  STEP.M                       0.100000: Depth increment
  NULL.                         9999.99: Null values
  COMP.                         COMPANY:
  WELL.                            WELL:                    6280
  FLD .                           FIELD:                    Алексеевское мест-е
  CNTY.                          COUNTY:
  STAT.                           STATE: RUSSIA
  DATE.                        LOG DATE:                        28/09/2017
  SRVC.                   ООО ТНГ АЛГИС: ООО ТНГ АЛГИС
  UWI.           Unique Well Identifier:
~Parametr information block
# MNEM.UNIT
# ====.================================:===================
~Other information
# ------------------------- REMARKS  AREA ------------------

~Curve information
# MNEM.UNIT
# ====.================================:===================
  DEPTH .M                      :   1 Depth
  GK    .ur/h                   :   Гамма каротаж
  NKTD  .ue                     :   Нейтронный каротаж по тепловым нейтронам (большой зонд)
  WNK   .%                      :   Водородосодержание по НК
  NKTS  .ue                     :   Нейтронный каротаж по тепловым нейтронам (малый зонд)
~A Log        GK     NKTD      WNK     NKTS
# ...
1246.20    2.683    7.527   16.994    2.575 
1246.30    2.583    7.050   16.711    2.554 
1246.40    2.438    6.905   15.728    2.520 
1246.50    2.249    7.054   16.473    2.522 
1246.60    2.068    7.138   15.562    2.534 
1246.70    2.176    6.688   15.588    2.561 
1246.80    2.443    6.536   15.706    2.494 
1246.90    2.647    6.179   18.036    2.406 
1247.00    2.579    5.860   21.257    2.269 
1247.10    2.613    5.153   23.799    2.147 
1247.20    2.786    4.503   25.157    2.046 
1247.30    3.324    4.122   26.919    1.966 
1247.40    3.620    4.027   27.366    1.922 
1247.50    3.945    3.974   26.180    1.909 
1247.60    4.097    4.094   24.468    1.944 
1247.70    3.785    4.482   21.530    2.020 
1247.80    3.428    5.033   18.843    2.108 
1247.90    2.933    5.878   16.241    2.230 
1248.00    2.931    6.844   13.551    2.380 
1248.10    2.728    7.829   11.334    2.532 
1248.20    2.571    9.018   10.098    2.689 
1248.30    2.400    9.989   10.228    2.791 
1248.40    2.574   10.473   10.645    2.881 
1248.50    2.382   10.124   10.836    2.889 
1248.60    2.215    9.639   10.562    2.854 
1248.70    1.734    9.416   10.421    2.776 
1248.80    1.724    9.592   10.499    2.698 
1248.90    1.788    9.914   10.042    2.659 
1249.00    2.118   10.096    9.776    2.674 
1249.10    2.283   10.439    9.190    2.744 
1249.20    2.364   10.442   10.139    2.805 
1249.30    2.552   10.449   11.257    2.836 
1249.40    3.020    9.474   13.887    2.800 
1249.50    3.492    8.439   15.669    2.719 
1249.60    3.523    7.092   18.938    2.587 
1249.70    3.239    6.476   20.960    2.432 
1249.80    2.767    5.987   21.069    2.298 
1249.90    2.616    6.040   16.259    2.258 
1250.00    2.932    6.507   11.762    2.360 
1250.10    3.606    8.013    8.445    2.553 
1250.20    3.825    9.823    8.083    2.761 
1250.30    3.466   11.411    8.450    2.859 
1250.40    2.847   11.496    9.825    2.898 
1250.50    2.614   11.205   10.252    2.855 
1250.60    2.996   10.425   10.178    2.820 
1250.70    3.575   10.188    9.956    2.804 
1250.80    3.907   10.008    9.298    2.802 
1250.90    3.602    9.988    9.119    2.797 
1251.00    3.259   10.245    9.323    2.738 
1251.10    3.238   10.243   10.704    2.702 
1251.20    3.675   10.028   12.215    2.681 
1251.30    4.004    9.309   12.650    2.655 
1251.40    4.059    8.845   12.885    2.627 
1251.50    3.920    8.878   11.988    2.613 
1251.60    3.712    8.971   11.006    2.664 
1251.70    3.729    9.432   10.108    2.727 
1251.80    3.871    9.985    9.772    2.784 
1251.90    4.032   10.485    9.561    2.812 
1252.00    4.125   10.802    9.400    2.843 
1252.10    4.256   10.917    9.876    2.858 
1252.20    4.471   11.003   10.421    2.896 
1252.30    4.437   10.557   11.142    2.895 
1252.40    4.244   10.183   11.185    2.894 
1252.50    3.988    9.795   11.715    2.845 
1252.60    3.858    9.779   11.623    2.819 
1252.70    3.626    9.438   12.421    2.807 
1252.80    3.574    9.292   13.294    2.809 
1252.90    3.403    8.932   13.991    2.778 
1253.00    3.476    8.717   13.802    2.724 
1253.10    3.406    8.655   13.052    2.715 
1253.20    3.487    8.857   11.882    2.754 
1253.30    3.657    9.279   10.473    2.817 
1253.40    3.839    9.769    9.341    2.860 
1253.50    3.955   10.412    8.860    2.901 
1253.60    3.820   10.954    9.072    2.898 
1253.70    3.642   11.261    9.379    2.890 
1253.80    3.461   11.253    9.503    2.873 
1253.90    3.216   11.208    9.573    2.880 
1254.00    3.188   11.241    9.778    2.910 
1254.10    3.437   11.123    9.628    2.945 
1254.20    3.571   10.842    9.733    2.973 
1254.30    3.381   10.784    9.736    2.952 
1254.40    3.077   10.754    9.715    2.907 
1254.50    3.110   10.791    9.700    2.870 
1254.60    3.497   10.790    9.446    2.877 
1254.70    3.694   10.721   10.127    2.887 
1254.80    3.637   10.818   10.257    2.884 
1254.90    3.261   10.539   10.021    2.863 
1255.00    3.459   10.406    9.573    2.852 
1255.10    3.868   10.375    9.925    2.876 
1255.20    4.279   10.353   11.037    2.858 
1255.30    4.175   10.112   11.335    2.816 
1255.40    4.083    9.690   11.066    2.747 
1255.50    4.023    9.642   10.874    2.731 
1255.60    3.807    9.769   10.511    2.764 
1255.70    3.321    9.901   10.520    2.789 
1255.80    2.924   10.082   10.278    2.790 
1255.90    3.040   10.140   10.295    2.802 
1256.00    3.356   10.177   10.296    2.803 
1256.10    3.737   10.114   11.204    2.821 
1256.20    3.652   10.015   12.192    2.798 
1256.30    3.556    9.649   12.100    2.783 
1256.40    3.453    9.297   11.127    2.756 
1256.50    3.661    9.435    9.614    2.774 
1256.60    3.833    9.833    9.697    2.797 
1256.70    3.862   10.576    9.944    2.827 
1256.80    3.829   10.660   11.402    2.816 
1256.90    3.841   10.588   11.508    2.813 
1257.00    4.056    9.971   11.026    2.847 
1257.10    4.280    9.980   10.072    2.863 
1257.20    4.303   10.217    9.788    2.893 
1257.30    4.318   10.571    9.314    2.910 
1257.40    4.547   10.604    9.636    2.912 
1257.50    4.788   10.862    9.341    2.876 
1257.60    4.651   10.792    9.442    2.845 
1257.70    4.070   10.994    8.600    2.844 
1257.80    3.821   11.084    8.680    2.873 
1257.90    3.925   11.748    8.647    2.883 
1258.00    4.099   11.823    8.572    2.922 
1258.10    4.284   11.731    8.067    2.964 
1258.20    4.553   11.507    8.099    2.996 
1258.30    4.907   11.571    8.556    2.967 
1258.40    4.969   11.522    9.057    2.899 
1258.50    4.597   11.295    9.340    2.836 
1258.60    4.156   11.057    9.468    2.829 
1258.70    3.888   10.891    9.823    2.843 
1258.80    4.083   10.708   10.216    2.858 
1258.90    4.326   10.497    9.892    2.856 
1259.00    4.512   10.282    9.352    2.826 
1259.10    4.588   10.548    8.953    2.821 
1259.20    4.810   10.927    9.382    2.818 
1259.30    4.665   11.253    9.174    2.845 
1259.40    4.589   11.092    9.438    2.867 
1259.50    4.579   11.125    9.494    2.892 
1259.60    4.620   10.839   10.596    2.915 
1259.70    4.704   10.623   11.685    2.892 
1259.80    4.651   10.085   12.629    2.857 
1259.90    4.687    9.671   12.207    2.808 
1260.00    4.945    9.478   10.538    2.816 
1260.10    4.903    9.774    8.503    2.843 
1260.20    4.925   10.608    7.775    2.908 
1260.30    4.494   11.734    8.090    2.943 
1260.40    4.169   12.253    8.935    2.953 
1260.50    4.012   12.122    8.858    2.945 
1260.60    3.786   11.640    8.629    2.956 
1260.70    3.744   11.780    8.172    2.975 
1260.80    3.946   11.974    8.360    2.989 
1260.90    4.043   12.258    8.170    3.013 
1261.00    4.317   12.004    8.452    3.026 
1261.10    4.039   11.999    8.075    3.022 
1261.20    4.009   11.684    8.184    2.990 
1261.30    3.843   11.765    8.224    2.958 
1261.40    3.884   11.591    8.728    2.925 
1261.50    3.569   11.505    9.233    2.885 
1261.60    3.112   11.155    9.929    2.859 
1261.70    2.639   10.873   10.227    2.844 
1261.80    2.434   10.563    9.899    2.833 
1261.90    2.452   10.469    9.362    2.836 
1262.00    2.405   10.627    8.882    2.854 
1262.10    2.562   10.848    9.163    2.871 
1262.20    2.599   11.143    9.044    2.867 
1262.30    2.651   11.155    8.939    2.848 
1262.40    2.679   11.429    8.395    2.854 
1262.50    2.682   11.563    7.881    2.899 
1262.60    2.665   11.700    8.185    2.952 
1262.70    2.656   11.945    9.035    2.970 
1262.80    2.505   11.723    9.914    2.920 
1262.90    2.390   11.158    9.672    2.898 
1263.00    2.091   10.593    9.555    2.892 
1263.10    2.174   10.716   10.312    2.880 
1263.20    2.356   10.872   10.659    2.860 
1263.30    2.378   10.537   10.541    2.858 
1263.40    2.393   10.365    9.862    2.883 
1263.50    2.525   10.473    9.053    2.901 
1263.60    2.733   10.855    8.702    2.903 
1263.70    2.695   11.294    8.785    2.916 
1263.80    2.600   11.501    9.380    2.923 
1263.90    2.430   11.442    9.969    2.918 
