~Version information
  VERS.                            1.20: CWLS LAS  -  VERSION 1.20
  WRAP.                              NO: One line per depth step
~Well information
# MNEM.UNIT
# ====.================================:===================
  STRT.M                       0.200000: First depth in file
  STOP.M                    1577.200000: Last depth in file
  STEP.M                       0.100000: Depth increment
  NULL.                         9999.99: Null values
  COMP.                         COMPANY:
  WELL.                            WELL:                    6280
  FLD .                           FIELD:                    Алексеевское мест-е
  CNTY.                          COUNTY:
  STAT.                           STATE: RUSSIA
  DATE.                        LOG DATE:                        28/09/2017
  SRVC.                   ООО ТНГ АЛГИС: ООО ТНГ АЛГИС
  UWI.           Unique Well Identifier:
~Parametr information block
# MNEM.UNIT
# ====.================================:===================
~Other information
# ------------------------- REMARKS  AREA ------------------

~Curve information
# MNEM.UNIT
# ====.================================:===================
  DEPTH .M                      :   1 Depth
  GK    .ur/h                   :   Гамма каротаж
  NKTD  .ue                     :   Нейтронный каротаж по тепловым нейтронам (большой зонд)
  WNK   .%                      :   Водородосодержание по НК
  NKTS  .ue                     :   Нейтронный каротаж по тепловым нейтронам (малый зонд)
~A Log        GK     NKTD      WNK     NKTS
# ...
 409.60    1.925    3.348   23.989    1.587 
 409.70    2.054    3.412   24.269    1.602 
 409.80    2.366    3.417   23.477    1.596 
 409.90    2.480    3.388   25.229    1.601 
 410.00    2.268    3.487   25.832    1.592 
 410.10    2.210    3.320   26.840    1.592 
 410.20    2.367    3.226   23.801    1.599 
 410.30    2.866    3.103   24.280    1.606 
 410.40    3.352    3.423   23.654    1.589 
 410.50    3.565    3.471   23.552    1.574 
 410.60    3.548    3.604   21.450    1.585 
 410.70    3.500    3.672   21.114    1.632 
 410.80    3.471    3.915   20.943    1.662 
 410.90    3.591    3.958   22.266    1.688 
 411.00    3.412    3.895   22.463    1.682 
 411.10    3.094    3.646   23.688    1.682 
 411.20    2.665    3.525   25.813    1.645 
 411.30    2.453    3.433   27.197    1.609 
 411.40    2.399    3.316   26.906    1.565 
 411.50    2.235    3.287   25.154    1.584 
 411.60    2.223    3.388   23.187    1.632 
 411.70    2.494    3.548   21.914    1.684 
 411.80    2.788    3.585   24.027    1.721 
 411.90    2.488    3.451   28.077    1.713 
 412.00    2.131    3.112   32.165    1.629 
 412.10    1.865    2.832   29.485    1.505 
 412.20    2.027    2.635   30.107    1.452 
 412.30    2.057    2.845   30.673    1.487 
 412.40    2.119    2.774   32.524    1.543 
 412.50    2.110    2.698   30.517    1.553 
 412.60    2.007    2.578   29.575    1.540 
 412.70    2.148    2.706   28.213    1.520 
 412.80    2.084    2.778   29.132    1.524 
 412.90    2.096    2.884   28.176    1.518 
 413.00    1.907    2.828   29.245    1.520 
 413.10    1.859    2.906   29.286    1.520 
 413.20    1.748    2.819   30.566    1.529 
 413.30    1.518    2.838   30.193    1.530 
 413.40    1.391    2.764   27.872    1.529 
 413.50    1.424    2.807   27.289    1.541 
 413.60    1.450    2.953   26.991    1.553 
 413.70    1.490    2.995   27.491    1.562 
 413.80    1.488    3.020   27.930    1.542 
 413.90    1.569    2.981   29.201    1.538 
 414.00    1.546    2.911   31.507    1.538 
 414.10    1.481    2.765   31.627    1.540 
 414.20    1.349    2.610   32.455    1.522 
 414.30    1.242    2.636   31.809    1.498 
 414.40    1.306    2.604   31.127    1.503 
 414.50    1.422    2.668   30.031    1.522 
 414.60    1.539    2.722   29.776    1.536 
 414.70    1.457    2.823   29.151    1.548 
 414.80    1.416    2.865   27.953    1.552 
 414.90    1.501    2.931   25.755    1.564 
 415.00    1.507    3.037   25.053    1.576 
 415.10    1.450    3.241   22.798    1.585 
 415.20    1.365    3.315   23.660    1.590 
 415.30    1.444    3.561   23.766    1.593 
 415.40    1.493    3.466   26.087    1.595 
 415.50    1.621    3.438   26.288    1.599 
 415.60    1.774    3.170   27.573    1.598 
 415.70    1.804    3.120   28.534    1.591 
 415.80    1.758    2.994   28.122    1.573 
 415.90    1.639    2.926   27.769    1.557 
 416.00    1.776    2.945   26.881    1.550 
 416.10    1.790    2.956   25.803    1.556 
 416.20    1.804    3.035   22.787    1.549 
 416.30    1.745    3.143   22.996    1.539 
 416.40    1.820    3.458   25.756    1.541 
 416.50    1.700    3.437   31.250    1.547 
 416.60    1.661    3.127   31.244    1.551 
 416.70    1.660    2.646   29.470    1.552 
 416.80    1.802    2.645   29.152    1.536 
 416.90    1.802    2.776   29.173    1.513 
 417.00    1.684    2.805   30.149    1.513 
 417.10    1.627    2.776   28.759    1.515 
 417.20    1.754    2.719   30.149    1.517 
 417.30    1.924    2.821   28.921    1.503 
 417.40    1.945    2.748   29.500    1.511 
 417.50    1.971    2.845   27.025    1.510 
 417.60    1.956    2.824   25.240    1.527 
 417.70    2.090    2.977   23.033    1.529 
 417.80    2.137    3.106   23.212    1.542 
 417.90    2.338    3.316   24.279    1.518 
 418.00    2.374    3.307   25.901    1.503 
 418.10    2.241    3.295   25.329    1.500 
 418.20    1.831    3.226   25.366    1.504 
 418.30    1.591    3.369   24.477    1.549 
 418.40    1.522    3.353   22.925    1.592 
 418.50    1.718    3.416   22.713    1.634 
 418.60    1.740    3.530   23.618    1.629 
 418.70    1.852    3.493   25.397    1.616 
 418.80    1.890    3.347   25.656    1.591 
 418.90    2.061    3.103   26.428    1.563 
 419.00    2.052    3.004   27.574    1.542 
 419.10    1.882    2.925   27.473    1.509 
 419.20    1.868    2.891   28.658    1.472 
 419.30    1.956    2.942   29.153    1.466 
 419.40    2.195    2.839   30.842    1.497 
 419.50    2.171    2.754   30.812    1.519 
 419.60    2.147    2.601   31.232    1.515 
 419.70    2.181    2.599   30.434    1.490 
 419.80    2.099    2.581   30.483    1.472 
 419.90    1.945    2.627   31.647    1.470 
 420.00    1.824    2.593   31.367    1.475 
 420.10    1.883    2.530   29.963    1.471 
 420.20    1.929    2.596   29.573    1.453 
 420.30    1.951    2.722   29.478    1.462 
 420.40    1.884    2.732   27.843    1.489 
 420.50    1.840    2.661   26.008    1.505 
 420.60    1.764    2.707   25.879    1.495 
 420.70    1.711    2.790   28.171    1.452 
 420.80    1.752    2.829   29.249    1.413 
 420.90    1.680    2.706   28.383    1.381 
 421.00    1.761    2.671   27.600    1.395 
 421.10    1.807    2.765   26.552    1.425 
 421.20    1.911    2.844   25.784    1.449 
 421.30    1.906    2.933   26.424    1.464 
 421.40    1.885    2.964   27.020    1.474 
 421.50    1.885    2.907   27.434    1.475 
 421.60    1.864    2.891   28.221    1.458 
 421.70    1.714    2.887   28.706    1.457 
 421.80    1.449    2.833   28.875    1.474 
 421.90    1.270    2.793   26.002    1.489 
 422.00    1.218    2.780   24.218    1.493 
 422.10    1.420    2.991   24.061    1.492 
 422.20    1.803    3.097   24.455    1.492 
 422.30    2.079    3.065   27.083    1.480 
 422.40    2.353    2.977   27.928    1.453 
 422.50    2.325    2.736   31.162    1.431 
 422.60    2.314    2.626   29.906    1.407 
 422.70    2.244    2.389   31.692    1.397 
 422.80    2.356    2.477   29.453    1.374 
 422.90    2.217    2.411   30.762    1.363 
 423.00    2.015    2.564   29.519    1.367 
 423.10    1.776    2.476   30.040    1.395 
 423.20    1.825    2.575   29.133    1.398 
 423.30    1.856    2.604   27.499    1.398 
 423.40    1.746    2.746   25.006    1.407 
 423.50    1.705    2.903   22.687    1.443 
 423.60    1.643    3.114   21.995    1.485 
 423.70    1.629    3.189   23.580    1.500 
 423.80    1.565    3.096   26.335    1.496 
 423.90    1.602    2.871   28.044    1.426 
 424.00    1.806    2.730   28.460    1.354 
 424.10    1.891    2.742   25.932    1.321 
 424.20    1.835    2.781   25.564    1.364 
 424.30    1.664    2.955   25.125    1.439 
 424.40    1.542    2.878   27.992    1.476 
 424.50    1.610    2.792   28.989    1.460 
 424.60    1.728    2.517   31.554    1.406 
 424.70    1.934    2.462   32.779    1.346 
 424.80    1.870    2.357   34.508    1.319 
 424.90    1.767    2.312   33.076    1.326 
 425.00    1.622    2.239   30.914    1.359 
 425.10    1.675    2.317   28.996    1.375 
 425.20    1.660    2.480   27.818    1.390 
 425.30    1.647    2.615   25.412    1.389 
 425.40    1.597    2.728   24.426    1.406 
 425.50    1.780    2.925   25.543    1.409 
 425.60    1.956    3.015   27.905    1.422 
 425.70    2.117    2.884   29.426    1.423 
 425.80    2.173    2.682   30.459    1.424 
 425.90    2.333    2.558   31.185    1.408 
 426.00    2.332    2.484   32.738    1.402 
 426.10    2.343    2.414   33.152    1.394 
 426.20    2.243    2.323   31.934    1.392 
 426.30    2.147    2.334   30.617    1.379 
 426.40    2.087    2.426   28.441    1.380 
 426.50    2.127    2.522   27.338    1.401 
 426.60    2.139    2.663   26.972    1.412 
 426.70    2.028    2.738   27.520    1.419 
 426.80    1.796    2.766   27.950    1.412 
 426.90    1.624    2.714   28.542    1.408 
 427.00    1.608    2.664   31.964    1.408 
 427.10    1.608    2.562   35.058    1.403 
 427.20    1.705    2.327   37.069    1.394 
 427.30    1.727    2.162   34.394    1.363 
