~Version information
  VERS.                            1.20: CWLS LAS  -  VERSION 1.20
  WRAP.                              NO: One line per depth step
~Well information
# MNEM.UNIT
# ====.================================:===================
  STRT.M                       0.200000: First depth in file
  STOP.M                    1577.200000: Last depth in file
  STEP.M                       0.100000: Depth increment
  NULL.                         9999.99: Null values
  COMP.                         COMPANY:
  WELL.                            WELL:                    6280
  FLD .                           FIELD:                    Алексеевское мест-е
  CNTY.                          COUNTY:
  STAT.                           STATE: RUSSIA
  DATE.                        LOG DATE:                        28/09/2017
  SRVC.                   ООО ТНГ АЛГИС: ООО ТНГ АЛГИС
  UWI.           Unique Well Identifier:
~Parametr information block
# MNEM.UNIT
# ====.================================:===================
~Other information
# ------------------------- REMARKS  AREA ------------------

~Curve information
# MNEM.UNIT
# ====.================================:===================
  DEPTH .M                      :   1 Depth
  GK    .ur/h                   :   Гамма каротаж
  NKTD  .ue                     :   Нейтронный каротаж по тепловым нейтронам (большой зонд)
  WNK   .%                      :   Водородосодержание по НК
  NKTS  .ue                     :   Нейтронный каротаж по тепловым нейтронам (малый зонд)
~A Log        GK     NKTD      WNK     NKTS
# ...
 107.00    3.784    1.659   39.122    1.187 
 107.10    4.439    1.687   43.683    1.165 
 107.20    4.855    1.594   45.518    1.149 
 107.30    5.284    1.439   46.382    1.121 
 107.40    5.142    1.414   44.684    1.102 
 107.50    4.884    1.403   42.275    1.098 
 107.60    4.477    1.472   42.178    1.120 
 107.70    4.420    1.577   41.184    1.131 
 107.80    4.119    1.625   39.159    1.146 
 107.90    3.772    1.722   35.511    1.168 
 108.00    3.459    1.831   34.309    1.201 
 108.10    3.351    1.968   36.899    1.246 
 108.20    3.322    1.970   38.059    1.267 
 108.30    3.330    1.800   41.174    1.252 
 108.40    3.543    1.718   43.342    1.217 
 108.50    3.834    1.570   47.874    1.183 
 108.60    4.234    1.496   48.370    1.160 
 108.70    4.494    1.366   48.244    1.136 
 108.80    4.565    1.360   49.904    1.133 
 108.90    4.271    1.369   49.706    1.134 
 109.00    4.125    1.317   49.894    1.140 
 109.10    4.226    1.305   45.313    1.145 
 109.20    4.563    1.281   42.596    1.137 
 109.30    4.606    1.417   42.400    1.122 
 109.40    4.308    1.525   42.988    1.106 
 109.50    4.131    1.545   43.942    1.118 
 109.60    4.071    1.505   40.559    1.137 
 109.70    4.245    1.455   41.867    1.147 
 109.80    4.324    1.552   40.951    1.131 
 109.90    4.140    1.511   41.125    1.116 
 110.00    4.103    1.546   41.078    1.108 
 110.10    4.268    1.535   41.913    1.110 
 110.20    4.449    1.544   43.807    1.113 
 110.30    4.512    1.517   43.745    1.109 
 110.40    4.377    1.471   47.187    1.114 
 110.50    4.492    1.487   46.666    1.115 
 110.60    4.473    1.400   44.263    1.125 
 110.70    4.653    1.399   42.237    1.136 
 110.80    4.791    1.441   42.577    1.147 
 110.90    4.903    1.481   42.753    1.134 
 111.00    4.744    1.481   40.464    1.113 
 111.10    4.804    1.506   39.321    1.096 
 111.20    4.703    1.597   40.294    1.104 
 111.30    4.588    1.622   42.972    1.127 
 111.40    4.214    1.548   45.302    1.137 
 111.50    4.155    1.447   47.234    1.127 
 111.60    4.320    1.372   47.500    1.098 
 111.70    4.706    1.336   44.938    1.087 
 111.80    4.957    1.352   44.851    1.082 
 111.90    5.028    1.437   44.393    1.096 
 112.00    5.115    1.447   47.891    1.114 
 112.10    5.151    1.444   49.278    1.125 
 112.20    5.078    1.341   51.611    1.131 
 112.30    4.890    1.294   52.566    1.118 
 112.40    4.707    1.223   52.860    1.114 
 112.50    4.676    1.200   53.146    1.104 
 112.60    4.616    1.207   52.823    1.091 
 112.70    4.348    1.221   50.247    1.089 
 112.80    4.185    1.274   45.390    1.102 
 112.90    4.023    1.357   41.356    1.120 
 113.00    3.905    1.481   39.715    1.162 
 113.10    3.617    1.552   44.899    1.180 
 113.20    3.411    1.593   47.515    1.170 
 113.30    3.481    1.455   48.366    1.127 
 113.40    3.567    1.422   44.428    1.116 
 113.50    3.790    1.400   45.403    1.138 
 113.60    4.070    1.480   46.097    1.173 
 113.70    4.390    1.431   47.154    1.174 
 113.80    4.527    1.426   46.346    1.147 
 113.90    4.808    1.431   46.372    1.131 
 114.00    4.955    1.475   43.758    1.143 
 114.10    5.117    1.449   43.338    1.172 
 114.20    4.914    1.488   44.636    1.188 
 114.30    4.713    1.487   45.824    1.168 
 114.40    4.230    1.445   46.968    1.137 
 114.50    3.957    1.432   44.989    1.126 
 114.60    3.979    1.381   45.687    1.124 
 114.70    4.207    1.442   44.719    1.141 
 114.80    4.225    1.414   45.171    1.126 
 114.90    4.236    1.461   45.471    1.130 
 115.00    4.070    1.444   43.162    1.124 
 115.10    4.256    1.444   42.408    1.139 
 115.20    4.525    1.523   44.377    1.136 
 115.30    4.570    1.556   45.981    1.143 
 115.40    4.393    1.480   45.318    1.149 
 115.50    3.785    1.412   43.781    1.155 
 115.60    3.566    1.424   43.927    1.146 
 115.70    3.521    1.481   49.581    1.129 
 115.80    3.797    1.492   49.194    1.124 
 115.90    4.123    1.361   47.839    1.132 
 116.00    4.292    1.386   42.372    1.144 
 116.10    4.546    1.430   42.877    1.168 
 116.20    4.482    1.570   43.422    1.181 
 116.30    4.477    1.555   47.170    1.186 
 116.40    4.339    1.542   47.970    1.165 
 116.50    4.684    1.431   47.283    1.166 
 116.60    4.914    1.389   45.369    1.170 
 116.70    4.854    1.373   42.840    1.172 
 116.80    4.666    1.434   45.123    1.155 
 116.90    4.833    1.520   46.686    1.127 
 117.00    5.038    1.467   43.435    1.132 
 117.10    4.743    1.395   39.175    1.140 
 117.20    4.240    1.464   38.029    1.153 
 117.30    4.082    1.605   40.160    1.131 
 117.40    4.115    1.665   40.950    1.111 
 117.50    4.217    1.608   41.064    1.111 
 117.60    4.351    1.586   43.574    1.123 
 117.70    4.484    1.569   44.877    1.138 
 117.80    4.365    1.496   42.312    1.142 
 117.90    4.299    1.461   42.927    1.132 
 118.00    4.326    1.544   43.685    1.139 
 118.10    4.196    1.508   46.559    1.142 
 118.20    3.872    1.471   46.470    1.144 
 118.30    3.944    1.382   44.985    1.132 
 118.40    4.118    1.408   43.244    1.122 
 118.50    4.084    1.480   39.231    1.118 
 118.60    3.743    1.567   39.254    1.137 
 118.70    3.925    1.717   41.292    1.160 
 118.80    4.125    1.736   41.942    1.185 
 118.90    4.441    1.669   39.633    1.190 
 119.00    4.444    1.654   39.484    1.204 
 119.10    4.500    1.733   42.619    1.210 
 119.20    4.391    1.765   42.677    1.217 
 119.30    4.541    1.664   36.713    1.212 
 119.40    4.660    1.646   33.491    1.230 
 119.50    4.724    1.846   33.403    1.242 
 119.60    4.365    1.964   37.600    1.229 
 119.70    4.037    1.958   41.539    1.208 
 119.80    3.818    1.782   42.554    1.189 
 119.90    3.886    1.635   40.740    1.183 
 120.00    4.272    1.603   39.539    1.190 
 120.10    4.573    1.650   38.156    1.192 
 120.20    4.867    1.693   36.943    1.194 
 120.30    4.808    1.761   35.068    1.182 
 120.40    4.774    1.828   37.528    1.181 
 120.50    4.550    1.916   40.674    1.191 
 120.60    4.333    1.797   41.792    1.203 
 120.70    3.908    1.671   41.598    1.206 
 120.80    3.546    1.622   39.560    1.198 
 120.90    3.375    1.648   39.422    1.196 
 121.00    3.399    1.752   39.704    1.189 
 121.10    3.607    1.836   41.615    1.203 
 121.20    3.636    1.885   40.936    1.223 
 121.30    3.524    1.836   37.899    1.278 
 121.40    2.987    1.835   34.596    1.320 
 121.50    2.375    1.941   33.605    1.341 
 121.60    1.941    2.098   35.037    1.320 
 121.70    1.819    2.198   34.280    1.306 
 121.80    1.961    2.187   34.497    1.305 
 121.90    2.141    2.252   35.357    1.335 
 122.00    2.434    2.167   38.197    1.375 
 122.10    2.463    2.031   39.535    1.390 
 122.20    2.407    1.854   41.542    1.345 
 122.30    2.101    1.825   45.331    1.287 
 122.40    1.994    1.788   43.804    1.255 
 122.50    1.955    1.687   40.367    1.273 
 122.60    1.973    1.775   35.686    1.303 
 122.70    2.258    1.920   33.305    1.331 
 122.80    2.332    2.116   32.124    1.358 
 122.90    2.562    2.200   32.740    1.365 
 123.00    2.649    2.233   35.541    1.352 
 123.10    2.957    2.205   36.991    1.326 
 123.20    3.056    2.071   37.543    1.306 
 123.30    2.830    2.051   34.850    1.310 
 123.40    2.579    2.068   31.540    1.318 
 123.50    2.208    2.212   30.122    1.351 
 123.60    2.017    2.329   30.347    1.379 
 123.70    1.973    2.293   34.114    1.385 
 123.80    2.471    2.159   36.716    1.342 
 123.90    3.216    1.892   38.756    1.273 
 124.00    3.897    1.745   38.389    1.206 
 124.10    4.101    1.675   40.527    1.163 
 124.20    3.955    1.691   43.442    1.142 
 124.30    4.017    1.630   45.864    1.148 
 124.40    4.485    1.526   45.291    1.150 
 124.50    4.882    1.442   45.508    1.162 
 124.60    4.894    1.427   47.436    1.159 
 124.70    4.468    1.414   50.514    1.150 
