~Version information
  VERS.                            1.20: CWLS LAS  -  VERSION 1.20
  WRAP.                              NO: One line per depth step
~Well information
# MNEM.UNIT
# ====.================================:===================
  STRT.M                       0.200000: First depth in file
  STOP.M                    1577.200000: Last depth in file
  STEP.M                       0.100000: Depth increment
  NULL.                         9999.99: Null values
  COMP.                         COMPANY:
  WELL.                            WELL:                    6280
  FLD .                           FIELD:                    Алексеевское мест-е
  CNTY.                          COUNTY:
  STAT.                           STATE: RUSSIA
  DATE.                        LOG DATE:                        28/09/2017
  SRVC.                   ООО ТНГ АЛГИС: ООО ТНГ АЛГИС
  UWI.           Unique Well Identifier:
~Parametr information block
# MNEM.UNIT
# ====.================================:===================
~Other information
# ------------------------- REMARKS  AREA ------------------

~Curve information
# MNEM.UNIT
# ====.================================:===================
  DEPTH .M                      :   1 Depth
  GK    .ur/h                   :   Гамма каротаж
  NKTD  .ue                     :   Нейтронный каротаж по тепловым нейтронам (большой зонд)
  WNK   .%                      :   Водородосодержание по НК
  NKTS  .ue                     :   Нейтронный каротаж по тепловым нейтронам (малый зонд)
~A Log        GK     NKTD      WNK     NKTS
# ...
1459.80    1.885   13.664    3.838    2.726 
1459.90    1.887   14.909    3.278    2.836 
1460.00    1.751   15.340    3.053    2.882 
1460.10    1.549   15.684    3.205    2.910 
1460.20    1.425   15.806    3.696    2.898 
1460.30    1.526   15.804    3.778    2.847 
1460.40    1.538   15.528    3.574    2.823 
1460.50    1.475   15.533    2.983    2.854 
1460.60    1.416   15.776    2.850    2.905 
1460.70    1.457   16.371    2.497    2.922 
1460.80    1.314   16.533    2.763    2.926 
1460.90    1.309   16.864    2.716    2.909 
1461.00    1.378   16.519    3.151    2.908 
1461.10    1.516   16.351    3.407    2.889 
1461.20    1.481   15.802    3.501    2.887 
1461.30    1.329   15.594    3.174    2.848 
1461.40    1.260   15.660    3.157    2.842 
1461.50    1.226   16.066    2.983    2.858 
1461.60    1.279   15.981    3.159    2.889 
1461.70    1.407   16.088    2.879    2.895 
1461.80    1.604   15.931    3.157    2.876 
1461.90    1.444   16.408    3.425    2.858 
1462.00    1.211   16.255    3.458    2.867 
1462.10    1.112   15.857    3.302    2.893 
1462.20    1.401   15.363    3.415    2.925 
1462.30    2.006   14.784    4.323    2.910 
1462.40    2.686   14.043    5.582    2.825 
1462.50    3.410   12.969    6.469    2.689 
1462.60    3.810   11.995    7.271    2.575 
1462.70    3.963   11.352    7.475    2.533 
1462.80    3.955   10.787    7.491    2.543 
1462.90    3.700   10.521    7.998    2.540 
1463.00    3.592   10.654    8.312    2.529 
1463.10    3.338   10.899    6.639    2.496 
1463.20    2.895   11.408    4.370    2.530 
1463.30    2.317   12.993    3.095    2.662 
1463.40    1.786   15.127    2.890    2.834 
1463.50    1.670   16.633    2.748    2.937 
1463.60    1.423   16.935    2.552    2.964 
1463.70    1.274   16.998    2.652    2.980 
1463.80    1.216   16.971    3.194    2.988 
1463.90    1.385   16.529    3.525    2.968 
1464.00    1.754   15.590    4.127    2.919 
1464.10    2.262   14.989    4.473    2.865 
1464.20    2.643   14.532    4.629    2.813 
1464.30    2.713   14.613    4.078    2.770 
1464.40    2.678   14.999    3.362    2.801 
1464.50    2.547   15.715    3.178    2.883 
1464.60    2.364   16.472    3.327    2.990 
1464.70    2.146   16.476    3.546    3.019 
1464.80    2.160   16.118    3.704    3.009 
1464.90    2.157   15.595    4.036    2.970 
1465.00    2.101   15.177    4.323    2.936 
1465.10    1.846   14.597    4.277    2.886 
1465.20    1.768   14.179    4.265    2.840 
1465.30    1.743   14.171    4.397    2.796 
1465.40    1.690   14.220    4.787    2.769 
1465.50    1.651   14.167    4.957    2.759 
1465.60    1.457   13.816    5.406    2.766 
1465.70    1.357   13.677    5.286    2.781 
1465.80    1.301   13.282    4.876    2.783 
1465.90    1.326   13.490    4.168    2.786 
1466.00    1.329   14.078    3.693    2.785 
1466.10    1.359   14.752    3.590    2.807 
1466.20    1.626   15.278    3.886    2.853 
1466.30    1.964   15.454    3.740    2.851 
1466.40    2.131   15.369    3.362    2.857 
1466.50    1.900   15.677    3.105    2.869 
1466.60    1.803   16.174    3.229    2.913 
1466.70    1.685   16.438    3.373    2.942 
1466.80    1.677   16.370    3.197    2.954 
1466.90    1.561   16.357    3.033    2.947 
1467.00    1.562   16.781    2.959    2.962 
1467.10    1.540   17.141    2.484    2.990 
1467.20    1.413   17.348    2.368    3.029 
1467.30    1.256   17.806    2.396    3.057 
1467.40    1.278   17.913    2.745    3.077 
1467.50    1.541   17.730    2.572    3.047 
1467.60    1.781   17.272    2.570    3.038 
1467.70    1.859   17.150    2.813    3.014 
1467.80    1.943   16.620    3.685    3.015 
1467.90    2.357   15.718    4.734    2.955 
1468.00    2.936   14.408    5.986    2.863 
1468.10    3.178   13.217    7.536    2.757 
1468.20    2.895   12.112    8.287    2.693 
1468.30    2.380   11.090    8.470    2.653 
1468.40    2.088   10.737    7.963    2.633 
1468.50    1.969   10.716    7.996    2.640 
1468.60    1.902   10.851    8.089    2.664 
1468.70    1.918   10.615    9.372    2.685 
1468.80    2.041   10.362   10.254    2.645 
1468.90    2.076    9.765   10.754    2.592 
1469.00    2.000    9.560    8.983    2.543 
1469.10    1.787    9.709    7.073    2.565 
1469.20    1.679   10.854    5.837    2.625 
1469.30    1.725   12.135    5.815    2.732 
1469.40    1.809   12.934    5.764    2.794 
1469.50    1.894   12.852    5.865    2.813 
1469.60    1.841   12.911    5.169    2.786 
1469.70    1.815   13.019    4.884    2.764 
1469.80    1.950   13.776    3.782    2.768 
1469.90    2.006   14.072    3.514    2.809 
1470.00    2.272   14.937    3.665    2.845 
1470.10    2.323   15.136    4.471    2.853 
1470.20    2.392   14.908    4.707    2.811 
1470.30    2.256   14.161    5.006    2.795 
1470.40    2.204   13.878    5.281    2.783 
1470.50    2.131   13.606    6.231    2.794 
1470.60    2.044   13.289    6.467    2.781 
1470.70    2.110   12.369    7.380    2.780 
1470.80    2.125   12.035    7.227    2.764 
1470.90    2.060   11.539    6.975    2.729 
1471.00    1.735   11.960    6.213    2.693 
1471.10    1.575   12.408    5.585    2.722 
1471.20    1.636   13.146    4.778    2.797 
1471.30    1.560   13.770    4.206    2.860 
1471.40    1.407   14.453    4.127    2.897 
1471.50    1.268   14.816    4.467    2.920 
1471.60    1.337   14.587    5.034    2.910 
1471.70    1.420   14.093    5.744    2.871 
1471.80    1.332   13.417    6.678    2.811 
1471.90    1.523   12.646    7.368    2.780 
1472.00    1.478   11.775    7.900    2.747 
1472.10    1.385   11.168    8.660    2.708 
1472.20    1.128   10.801    9.004    2.668 
1472.30    1.130   10.437    9.437    2.633 
1472.40    1.233   10.385    8.679    2.624 
1472.50    1.225   10.314    8.102    2.641 
1472.60    1.274   10.881    7.167    2.676 
1472.70    1.344   11.288    7.341    2.718 
1472.80    1.631   11.741    8.004    2.757 
1472.90    1.885   11.250    9.945    2.772 
1473.00    2.160   10.575   11.557    2.737 
1473.10    2.064    9.556   11.573    2.648 
1473.20    2.052    9.186    9.813    2.583 
1473.30    1.909    9.546    8.134    2.584 
1473.40    2.048   10.632    6.807    2.685 
1473.50    2.008   11.643    6.224    2.792 
1473.60    1.849   12.585    6.132    2.856 
1473.70    1.555   12.968    6.339    2.865 
1473.80    1.405   12.877    6.674    2.873 
1473.90    1.499   12.548    6.672    2.860 
1474.00    1.604   12.184    7.147    2.824 
1474.10    1.623   12.001    7.943    2.786 
1474.20    1.485   11.686    8.368    2.760 
1474.30    1.403   11.336    8.129    2.718 
1474.40    1.432   11.355    6.934    2.721 
1474.50    1.591   11.751    6.159    2.760 
1474.60    1.823   12.688    4.826    2.829 
1474.70    1.890   13.268    4.360    2.890 
1474.80    2.358   14.154    4.271    2.918 
1474.90    2.824   14.426    4.403    2.914 
1475.00    3.074   14.599    4.511    2.859 
1475.10    2.623   14.745    4.253    2.825 
1475.20    2.008   14.865    4.055    2.841 
1475.30    1.700   15.081    3.812    2.896 
1475.40    1.747   15.135    4.258    2.940 
1475.50    2.191   15.074    4.555    2.932 
1475.60    2.450   14.557    5.087    2.903 
1475.70    2.575   14.161    5.363    2.843 
1475.80    2.267   13.492    6.413    2.831 
1475.90    2.052   13.017    7.359    2.809 
1476.00    1.813   12.082    8.772    2.772 
1476.10    1.713   11.307   10.171    2.722 
1476.20    1.612   10.336   10.283    2.695 
1476.30    1.771    9.628   10.409    2.665 
1476.40    1.909    9.666   10.535    2.632 
1476.50    2.125    9.712   10.507    2.633 
1476.60    2.250    9.767    9.960    2.658 
1476.70    2.118    9.810    9.168    2.687 
1476.80    2.027   10.115    9.574    2.719 
1476.90    1.727   10.442    9.100    2.727 
1477.00    1.736   10.251    9.093    2.737 
1477.10    1.623   10.465    8.793    2.714 
1477.20    1.608   10.528    8.815    2.721 
1477.30    1.544   10.760    8.225    2.711 
1477.40    1.557   10.755    7.662    2.726 
1477.50    1.502   10.918    7.886    2.742 
