~Version information
  VERS.                            1.20: CWLS LAS  -  VERSION 1.20
  WRAP.                              NO: One line per depth step
~Well information
# MNEM.UNIT
# ====.================================:===================
  STRT.M                       0.200000: First depth in file
  STOP.M                    1577.200000: Last depth in file
  STEP.M                       0.100000: Depth increment
  NULL.                         9999.99: Null values
  COMP.                         COMPANY:
  WELL.                            WELL:                    6280
  FLD .                           FIELD:                    Алексеевское мест-е
  CNTY.                          COUNTY:
  STAT.                           STATE: RUSSIA
  DATE.                        LOG DATE:                        28/09/2017
  SRVC.                   ООО ТНГ АЛГИС: ООО ТНГ АЛГИС
  UWI.           Unique Well Identifier:
~Parametr information block
# MNEM.UNIT
# ====.================================:===================
~Other information
# ------------------------- REMARKS  AREA ------------------

~Curve information
# MNEM.UNIT
# ====.================================:===================
  DEPTH .M                      :   1 Depth
  GK    .ur/h                   :   Гамма каротаж
  NKTD  .ue                     :   Нейтронный каротаж по тепловым нейтронам (большой зонд)
  WNK   .%                      :   Водородосодержание по НК
  NKTS  .ue                     :   Нейтронный каротаж по тепловым нейтронам (малый зонд)
~A Log        GK     NKTD      WNK     NKTS
# ...
1566.60    1.257   16.846    2.523    3.074 
1566.70    1.337   17.308    2.525    3.040 
1566.80    1.439   17.913    2.300    3.016 
1566.90    1.422   17.941    2.330    3.047 
1567.00    1.614   18.132    2.616    3.075 
1567.10    1.739   17.941    3.115    3.080 
1567.20    1.829   17.443    3.483    3.059 
1567.30    1.991   16.653    3.797    3.034 
1567.40    2.217   16.244    3.952    3.015 
1567.50    2.440   16.011    4.171    2.988 
1567.60    2.337   15.848    4.130    2.993 
1567.70    1.947   15.486    4.646    3.016 
1567.80    1.611   15.358    5.169    3.018 
1567.90    1.508   14.839    5.771    2.994 
1568.00    1.817   14.438    5.972    2.961 
1568.10    2.103   14.061    6.184    2.962 
1568.20    2.224   14.052    6.494    2.982 
1568.30    2.225   13.867    7.244    3.016 
1568.40    2.230   13.377    8.213    3.052 
1568.50    2.145   12.676    8.743    3.051 
1568.60    1.977   12.073    9.049    2.998 
1568.70    1.880   11.917    8.619    2.968 
1568.80    1.745   11.855    8.407    2.983 
1568.90    1.635   12.338    7.570    3.029 
1569.00    1.544   12.729    6.750    3.063 
1569.10    1.598   13.474    6.091    3.116 
1569.20    1.622   13.996    6.843    3.178 
1569.30    1.631   14.501    8.296    3.213 
1569.40    1.637   14.009    9.187    3.184 
1569.50    1.781   13.060    8.597    3.172 
1569.60    1.908   12.525    7.471    3.205 
1569.70    1.936   12.762    6.711    3.241 
1569.80    1.912   13.375    6.442    3.259 
1569.90    1.863   13.680    6.540    3.219 
1570.00    1.900   13.766    7.254    3.172 
1570.10    1.763   13.575    8.309    3.105 
1570.20    1.761   12.974    9.321    3.076 
1570.30    1.807   11.967    9.616    3.051 
1570.40    1.887   10.984    9.730    3.039 
1570.50    1.842   10.507   10.104    2.972 
1570.60    1.804   10.374   10.625    2.878 
1570.70    1.872   10.176   10.433    2.794 
1570.80    1.869   10.006    9.790    2.775 
1570.90    1.706   10.189    9.373    2.773 
1571.00    1.555   10.548    9.641    2.798 
1571.10    1.477   10.723    9.693    2.823 
1571.20    1.613   10.584    9.016    2.830 
1571.30    1.739   10.565    8.779    2.817 
1571.40    1.779   10.929    9.103    2.818 
1571.50    1.810   10.987    9.186    2.821 
1571.60    1.887   10.796    8.475    2.818 
1571.70    1.942   10.684    7.990    2.798 
1571.80    2.024   11.113    8.788    2.797 
1571.90    1.807   11.414   10.397    2.780 
1572.00    1.704   10.959   10.681    2.785 
1572.10    1.520   10.102    9.694    2.786 
1572.20    1.688    9.962    9.044    2.793 
1572.30    1.737   10.425    8.924    2.793 
1572.40    1.724   10.738    9.432    2.793 
1572.50    1.685   10.784    9.320    2.784 
1572.60    1.700   10.512    9.634    2.773 
1572.70    1.782   10.582    9.399    2.768 
1572.80    1.755   10.421    8.927    2.770 
1572.90    1.798   10.526    8.746    2.772 
1573.00    1.820   10.761    8.983    2.774 
1573.10    1.783   10.850    9.142    2.769 
1573.20    1.657   10.816    9.353    2.762 
1573.30    1.688   10.812    9.910    2.759 
1573.40    1.917   10.664   10.121    2.784 
1573.50    2.123   10.370    9.678    2.807 
1573.60    2.026   10.280    9.100    2.798 
1573.70    1.896   10.495    9.116    2.799 
1573.80    1.879   10.693    9.245    2.804 
1573.90    1.882   10.581    9.043    2.800 
1574.00    1.733   10.596    8.680    2.770 
1574.10    1.572   10.842    8.790    2.743 
1574.20    1.513   11.146    8.674    2.765 
1574.30    1.551   11.141    8.830    2.800 
1574.40    1.578   11.149    8.896    2.824 
1574.50    1.657   11.047    8.836    2.839 
1574.60    1.762   10.907    8.524    2.824 
1574.70    1.742   10.939    8.669    2.821 
1574.80    1.828   11.088    9.088    2.795 
1574.90    1.618   11.089    8.911    2.794 
1575.00    1.673   10.884    8.856    2.786 
1575.10    1.623   10.988    8.659    2.808 
1575.20    1.703   10.965    8.626    2.817 
1575.30    1.633   10.967    8.845    2.818 
1575.40    1.545   11.025    9.194    2.804 
1575.50  9999.99   10.944    9.520    2.775 
1575.60  9999.99   10.840    9.163    2.785 
1575.70  9999.99   10.605    8.833    2.797 
1575.80  9999.99   10.700    8.718    2.821 
1575.90  9999.99   10.866    9.038    2.807 
1576.00  9999.99   10.976    8.960    2.780 
1576.10  9999.99   10.852    9.211    2.775 
1576.20  9999.99   10.779    9.556    2.787 
1576.30  9999.99   10.573    9.015    2.802 
1576.40  9999.99   10.432    8.204    2.772 
1576.50  9999.99   10.678    8.430    2.754 
1576.60  9999.99   11.144    8.769    2.766 
1576.70  9999.99   11.136    8.440    2.754 
1576.80  9999.99   10.933    9.317    2.752 
1576.90  9999.99   11.185    8.179    2.784 
1577.00  9999.99   10.825  9999.99    2.783 
1577.10  9999.99   11.420  9999.99    2.798 
1577.20  9999.99  9999.99  9999.99    2.836 
