~Version information
  VERS.                            1.20: CWLS LAS  -  VERSION 1.20
  WRAP.                              NO: One line per depth step
~Well information
# MNEM.UNIT
# ====.================================:===================
  STRT.M                       0.200000: First depth in file
  STOP.M                    1577.200000: Last depth in file
  STEP.M                       0.100000: Depth increment
  NULL.                         9999.99: Null values
  COMP.                         COMPANY:
  WELL.                            WELL:                    6280
  FLD .                           FIELD:                    Алексеевское мест-е
  CNTY.                          COUNTY:
  STAT.                           STATE: RUSSIA
  DATE.                        LOG DATE:                        28/09/2017
  SRVC.                   ООО ТНГ АЛГИС: ООО ТНГ АЛГИС
  UWI.           Unique Well Identifier:
~Parametr information block
# MNEM.UNIT
# ====.================================:===================
~Other information
# ------------------------- REMARKS  AREA ------------------

~Curve information
# MNEM.UNIT
# ====.================================:===================
  DEPTH .M                      :   1 Depth
  GK    .ur/h                   :   Гамма каротаж
  NKTD  .ue                     :   Нейтронный каротаж по тепловым нейтронам (большой зонд)
  WNK   .%                      :   Водородосодержание по НК
  NKTS  .ue                     :   Нейтронный каротаж по тепловым нейтронам (малый зонд)
~A Log        GK     NKTD      WNK     NKTS
   0.20    9.175  9999.99  9999.99  9999.99 
   0.30    8.551  9999.99  9999.99  9999.99 
   0.40    7.764  9999.99  9999.99  9999.99 
   0.50    7.254  9999.99  9999.99  9999.99 
   0.60    7.262  9999.99  9999.99  9999.99 
   0.70    7.466  9999.99  9999.99  9999.99 
   0.80    7.349  9999.99  9999.99  9999.99 
   0.90    6.686  9999.99  9999.99  9999.99 
   1.00    5.920  9999.99  9999.99  9999.99 
   1.10    5.361  9999.99  9999.99  9999.99 
   1.20    4.619  9999.99  9999.99  9999.99 
   1.30    3.864  9999.99  9999.99  9999.99 
   1.40    3.125  9999.99  9999.99  9999.99 
   1.50    2.735  9999.99  9999.99  9999.99 
   1.60    2.788  9999.99  9999.99  9999.99 
   1.70    2.801  9999.99    7.159  9999.99 
   1.80    2.727  9999.99   32.226  9999.99 
   1.90    2.627    1.633   38.792  9999.99 
   2.00    2.825    0.808   39.274  9999.99 
   2.10    3.258    0.818   30.277    0.381 
   2.20    3.598    0.845   29.451    0.474 
   2.30    3.982    1.082   28.993    0.561 
   2.40    3.885    1.174   37.631    0.586 
   2.50    3.546    1.415   44.904    0.603 
   2.60    2.849    1.407   44.069    0.640 
   2.70    2.601    1.398   36.358    0.762 
   2.80    2.730    1.497   35.187    0.940 
   2.90    2.954    1.806   38.886    1.094 
   3.00    3.013    1.968   44.523    1.152 
   3.10    2.717    1.910   45.593    1.172 
   3.20    2.324    1.795   44.008    1.242 
   3.30    1.958    1.818   39.285    1.314 
   3.40    1.545    1.901   32.899    1.393 
   3.50    1.196    2.068   31.364    1.442 
   3.60    0.998    2.383   30.199    1.460 
   3.70    0.993    2.522   28.150    1.435 
   3.80    1.019    2.592   23.124    1.422 
   3.90    0.940    2.566   19.460    1.447 
   4.00    0.900    2.734   19.901    1.442 
   4.10    0.873    2.973   22.195    1.350 
   4.20    0.873    3.008   26.211    1.240 
   4.30    0.873    2.892   26.033    1.194 
   4.40    0.844    2.568   19.376    1.226 
   4.50    0.831    2.418   12.558    1.273 
   4.60    0.827    2.557    7.420    1.279 
   4.70    0.876    2.759    6.111    1.198 
   4.80    0.824    3.008    8.864    1.024 
   4.90    0.754    3.048   17.272    0.844 
   5.00    0.653    2.692   34.975    0.711 
   5.10    0.768    2.004   53.381    0.667 
   5.20    0.946    1.306   59.298    0.689 
   5.30    1.242    0.971   60.261    0.743 
   5.40    1.388    0.916   55.898    0.820 
   5.50    1.470    0.903   56.490    0.895 
   5.60    1.438    0.957   56.490    0.937 
   5.70    1.317    0.941   56.490    0.939 
   5.80    1.249    0.941   56.490    0.923 
   5.90    1.265    0.941   56.490    0.917 
   6.00    1.561    0.941   55.253    0.917 
   6.10    1.945    0.941   53.554    0.917 
   6.20    2.063    0.962   53.447    0.917 
   6.30    1.963    1.003   53.151    0.917 
   6.40    1.920    1.015   54.138    0.917 
   6.50    2.001    1.012   51.546    0.927 
   6.60    2.052    0.998   50.723    0.936 
   6.70    1.967    1.043   52.985    0.929 
   6.80    1.974    1.060   57.895    0.932 
   6.90    1.852    1.004   60.507    0.929 
   7.00    1.919    0.904   59.608    0.929 
   7.10    1.934    0.863   59.932    0.919 
   7.20    2.141    0.878   58.125    0.903 
   7.30    1.938    0.882   52.881    0.901 
   7.40    1.718    0.921   50.637    0.902 
   7.50    1.601    1.017   50.529    0.912 
   7.60    1.713    1.075   47.383    0.923 
   7.70    1.838    1.083   47.728    0.928 
   7.80    1.945    1.160   46.985    0.942 
   7.90    1.882    1.151   49.620    0.946 
   8.00    1.976    1.181   49.573    0.954 
   8.10    2.019    1.129   50.724    0.953 
   8.20    2.130    1.131   53.893    0.963 
   8.30    1.967    1.115   51.967    0.970 
   8.40    1.829    1.065   52.123    0.970 
   8.50    1.741    1.112   51.661    0.978 
   8.60    2.033    1.102   52.367    0.991 
   8.70    2.317    1.107   53.454    0.998 
   8.80    2.491    1.118   51.489    0.992 
   8.90    2.252    1.125   51.300    0.988 
   9.00    2.155    1.182   51.147    1.011 
   9.10    2.210    1.185   52.208    1.038 
   9.20    2.366    1.185   49.943    1.052 
   9.30    2.500    1.165   46.257    1.051 
   9.40    2.641    1.201   38.991    1.048 
   9.50    2.685    1.288   39.889    1.051 
   9.60    2.655    1.512   41.376    1.038 
   9.70    2.469    1.512   49.492    1.036 
   9.80    2.486    1.471   46.698    1.042 
   9.90    2.497    1.261   46.777    1.063 
  10.00    2.616    1.309   45.364    1.069 
  10.10    2.649    1.301   50.005    1.081 
  10.20    2.583    1.301   53.335    1.062 
  10.30    2.610    1.177   54.470    1.057 
  10.40    2.784    1.094   51.614    1.027 
  10.50    2.924    1.062   49.985    1.019 
  10.60    3.075    1.126   49.677    1.007 
  10.70    2.887    1.176   48.321    0.998 
  10.80    2.631    1.207   45.274    1.005 
  10.90    2.240    1.248   44.122    1.017 
  11.00    2.311    1.334   43.427    1.037 
  11.10    2.418    1.374   40.999    1.045 
  11.20    2.575    1.381   42.401    1.051 
  11.30    2.576    1.425   44.220    1.058 
  11.40    2.509    1.347   49.378    1.048 
  11.50    2.530    1.286   46.098    1.027 
  11.60    2.691    1.154   45.969    1.001 
  11.70    2.728    1.244   46.240    0.992 
  11.80    2.674    1.260   52.308    0.987 
  11.90    2.582    1.272   55.100    0.997 
  12.00    2.651    1.141   56.293    1.007 
  12.10    2.754    1.077   54.233    1.022 
  12.20    2.836    1.045   57.906    1.031 
  12.30    2.924    1.071   59.848    1.023 
  12.40    2.893    1.011   55.646    1.014 
  12.50    2.889    0.978   48.904    1.003 
  12.60    2.852    1.046   46.270    1.010 
  12.70    2.884    1.172   44.340    1.010 
  12.80    2.843    1.229   47.562    1.004 
  12.90    3.100    1.282   49.561    0.993 
  13.00    3.240    1.188   57.757    0.988 
  13.10    3.315    1.135   60.566    0.992 
  13.20    3.051    0.986   57.764    0.981 
  13.30    2.970    0.953   50.853    0.974 
  13.40    2.806    1.012   51.353    0.983 
  13.50    2.816    1.158   53.887    0.997 
  13.60    2.683    1.159   54.902    1.008 
  13.70    2.570    1.115   48.075    1.018 
  13.80    2.296    1.082   45.945    1.029 
  13.90    1.982    1.228   43.955    1.037 
  14.00    1.936    1.300   45.852    1.025 
  14.10    2.209    1.375   45.374    1.024 
  14.20    2.675    1.323   46.056    1.039 
  14.30    2.706    1.315   46.338    1.055 
  14.40    2.507    1.274   46.961    1.055 
  14.50    2.363    1.251   48.261    1.039 
  14.60    2.289    1.236   47.349    1.020 
  14.70    2.353    1.206   45.559    1.008 
  14.80    2.433    1.230   41.976    1.008 
  14.90    2.512    1.258   41.040    1.009 
  15.00    2.676    1.349   43.252    1.011 
  15.10    2.782    1.375   52.669    0.997 
  15.20    3.002    1.326   56.293    0.993 
  15.30    3.127    1.115   53.095    0.992 
  15.40    3.030    1.042   47.624    1.003 
  15.50    3.111    1.097   51.658    1.014 
  15.60    2.909    1.210   49.460    1.011 
  15.70    2.966    1.129   49.077    1.005 
  15.80    2.983    1.175   47.828    0.999 
  15.90    3.269    1.192   48.750    1.008 
  16.00    3.258    1.233   50.074    1.006 
  16.10    3.077    1.228   50.183    1.013 
  16.20    2.797    1.206   49.966    1.023 
  16.30    2.627    1.192   46.876    1.038 
  16.40    2.587    1.200   43.875    1.045 
  16.50    2.716    1.272   44.718    1.034 
  16.60    2.674    1.349   48.331    1.037 
  16.70    2.656    1.306   53.899    1.036 
  16.80    2.605    1.233   51.301    1.033 
  16.90    2.747    1.138   44.258    1.018 
  17.00    2.677    1.205   41.103    1.033 
  17.10    2.439    1.346   42.246    1.058 
  17.20    2.177    1.392   47.224    1.069 
  17.30    2.026    1.360   50.014    1.039 
  17.40    2.065    1.259   46.819    1.006 
  17.50    2.435    1.217   45.107    1.007 
  17.60    2.612    1.279   45.130    1.032 
  17.70    2.593    1.317   52.842    1.053 
  17.80    2.344    1.307   54.764    1.040 
  17.90    2.348    1.141   53.794    1.035 
