~Version information
  VERS.                            1.20: CWLS LAS  -  VERSION 1.20
  WRAP.                              NO: One line per depth step
~Well information
# MNEM.UNIT
# ====.================================:===================
  STRT.M                       0.200000: First depth in file
  STOP.M                    1577.200000: Last depth in file
  STEP.M                       0.100000: Depth increment
  NULL.                         9999.99: Null values
  COMP.                         COMPANY:
  WELL.                            WELL:                    6280
  FLD .                           FIELD:                    Алексеевское мест-е
  CNTY.                          COUNTY:
  STAT.                           STATE: RUSSIA
  DATE.                        LOG DATE:                        28/09/2017
  SRVC.                   ООО ТНГ АЛГИС: ООО ТНГ АЛГИС
  UWI.           Unique Well Identifier:
~Parametr information block
# MNEM.UNIT
# ====.================================:===================
~Other information
# ------------------------- REMARKS  AREA ------------------

~Curve information
# MNEM.UNIT
# ====.================================:===================
  DEPTH .M                      :   1 Depth
  GK    .ur/h                   :   Гамма каротаж
  NKTD  .ue                     :   Нейтронный каротаж по тепловым нейтронам (большой зонд)
  WNK   .%                      :   Водородосодержание по НК
  NKTS  .ue                     :   Нейтронный каротаж по тепловым нейтронам (малый зонд)
~A Log        GK     NKTD      WNK     NKTS
# ...
 213.80    5.001    1.635   39.123    1.218 
 213.90    4.810    1.645   42.537    1.212 
 214.00    4.882    1.744   44.728    1.188 
 214.10    4.812    1.634   41.183    1.185 
 214.20    4.982    1.561   36.722    1.206 
 214.30    5.035    1.634   34.870    1.217 
 214.40    5.278    1.794   38.599    1.217 
 214.50    5.079    1.873   40.356    1.182 
 214.60    4.978    1.747   39.525    1.174 
 214.70    4.579    1.675   37.793    1.173 
 214.80    4.611    1.697   38.638    1.194 
 214.90    4.403    1.752   38.692    1.190 
 215.00    4.688    1.719   36.713    1.184 
 215.10    4.845    1.711   35.354    1.175 
 215.20    5.018    1.801   35.380    1.176 
 215.30    5.053    1.855   35.631    1.171 
 215.40    4.865    1.870   35.729    1.178 
 215.50    4.734    1.853   37.777    1.176 
 215.60    4.667    1.843   43.171    1.186 
 215.70    4.785    1.758   45.108    1.182 
 215.80    4.918    1.573   44.704    1.179 
 215.90    5.101    1.527   43.731    1.179 
 216.00    5.211    1.532   45.793    1.188 
 216.10    5.064    1.563   45.628    1.200 
 216.20    4.840    1.497   46.063    1.194 
 216.30    4.811    1.490   43.998    1.194 
 216.40    4.851    1.473   43.227    1.193 
 216.50    4.856    1.524   38.374    1.183 
 216.60    4.999    1.557   36.540    1.180 
 216.70    5.057    1.718   36.940    1.171 
 216.80    4.937    1.791   39.537    1.177 
 216.90    4.638    1.783   42.536    1.168 
 217.00    4.757    1.694   43.067    1.167 
 217.10    4.713    1.587   43.079    1.173 
 217.20    4.741    1.565   42.115    1.182 
 217.30    4.728    1.565   43.616    1.182 
 217.40    4.852    1.597   43.478    1.178 
 217.50    4.760    1.532   43.525    1.179 
 217.60    4.496    1.532   43.694    1.179 
 217.70    4.758    1.537   46.175    1.167 
 217.80    5.056    1.544   45.920    1.164 
 217.90    4.874    1.487   45.198    1.169 
 218.00    4.434    1.511   44.205    1.178 
 218.10    4.332    1.531   43.749    1.194 
 218.20    4.602    1.550   45.406    1.207 
 218.30    4.866    1.550   45.889    1.205 
 218.40    4.832    1.484   45.063    1.195 
 218.50    4.958    1.458   41.884    1.184 
 218.60    4.913    1.462   43.646    1.173 
 218.70    5.008    1.557   47.804    1.164 
 218.80    5.138    1.492   49.024    1.147 
 218.90    5.464    1.389   44.208    1.144 
 219.00    5.349    1.362   42.633    1.137 
 219.10    5.165    1.508   42.537    1.152 
 219.20    4.883    1.562   47.027    1.156 
 219.30    4.899    1.569   46.230    1.163 
 219.40    5.149    1.437   46.657    1.166 
 219.50    5.142    1.448   49.998    1.169 
 219.60    5.066    1.422   48.227    1.174 
 219.70    4.821    1.320   41.974    1.163 
 219.80    4.919    1.377   37.059    1.153 
 219.90    4.767    1.573   37.636    1.142 
 220.00    4.521    1.760   40.380    1.151 
 220.10    4.369    1.734   44.042    1.158 
 220.20    4.606    1.640   42.941    1.161 
 220.30    4.716    1.523   42.646    1.159 
 220.40    4.555    1.559   41.811    1.166 
 220.50    4.456    1.562   42.906    1.170 
 220.60    4.495    1.624   42.475    1.171 
 220.70    4.428    1.594   41.253    1.166 
 220.80    3.941    1.577   41.783    1.191 
 220.90    3.503    1.559   41.424    1.196 
 221.00    3.302    1.555   44.285    1.173 
 221.10    3.806    1.624   45.620    1.130 
 221.20    4.050    1.552   49.216    1.140 
 221.30    4.298    1.511   46.557    1.181 
 221.40    4.142    1.423   44.302    1.199 
 221.50    4.236    1.521   42.008    1.199 
 221.60    4.455    1.596   41.437    1.213 
 221.70    4.360    1.671   42.388    1.230 
 221.80    4.169    1.682   40.916    1.233 
 221.90    3.849    1.633   39.231    1.230 
 222.00    4.009    1.672   37.488    1.224 
 222.10    4.189    1.751   36.311    1.212 
 222.20    4.381    1.812   36.943    1.203 
 222.30    4.330    1.849   36.035    1.213 
 222.40    4.387    1.790   37.836    1.207 
 222.50    4.306    1.810   40.736    1.198 
 222.60    4.249    1.746   41.101    1.178 
 222.70    4.180    1.652   41.162    1.166 
 222.80    4.250    1.636   40.214    1.172 
 222.90    4.348    1.600   39.083    1.184 
 223.00    4.347    1.619   40.627    1.181 
 223.10    4.406    1.650   43.019    1.157 
 223.20    4.556    1.594   42.571    1.147 
 223.30    4.895    1.496   41.429    1.140 
 223.40    4.980    1.500   40.416    1.140 
 223.50    4.912    1.509   45.200    1.126 
 223.60    4.623    1.531   44.735    1.118 
 223.70    4.501    1.406   44.011    1.097 
 223.80    4.375    1.464   42.815    1.089 
 223.90    4.161    1.499   44.388    1.107 
 224.00    4.484    1.518   44.311    1.142 
 224.10    4.796    1.463   42.297    1.151 
 224.20    4.966    1.492   40.069    1.137 
 224.30    4.629    1.574   40.144    1.132 
 224.40    4.309    1.622   40.581    1.153 
 224.50    4.490    1.586   42.518    1.166 
 224.60    4.672    1.564   45.022    1.146 
 224.70    4.852    1.539   44.447    1.122 
 224.80    4.773    1.496   40.937    1.117 
 224.90    4.732    1.544   37.104    1.146 
 225.00    4.691    1.679   35.266    1.173 
 225.10    4.761    1.821   34.377    1.197 
 225.20    4.659    1.844   36.711    1.208 
 225.30    4.759    1.832   38.752    1.202 
 225.40    5.078    1.734   42.636    1.166 
 225.50    5.230    1.668   42.809    1.134 
 225.60    5.252    1.524   44.290    1.135 
 225.70    5.036    1.504   46.947    1.144 
 225.80    5.074    1.466   48.662    1.138 
 225.90    5.213    1.429   44.816    1.127 
 226.00    5.255    1.426   40.879    1.132 
 226.10    4.969    1.538   38.024    1.165 
 226.20    4.460    1.648   40.323    1.202 
 226.30    3.946    1.715   40.613    1.201 
 226.40    3.821    1.638   43.741    1.184 
 226.50    3.776    1.639   43.624    1.157 
 226.60    4.213    1.553   43.265    1.163 
 226.70    4.420    1.553   42.665    1.171 
 226.80    4.325    1.568   43.902    1.186 
 226.90    3.879    1.603   44.743    1.183 
 227.00    4.042    1.581   39.876    1.186 
 227.10    4.574    1.542   36.793    1.197 
 227.20    4.897    1.696   37.454    1.211 
 227.30    4.581    1.789   38.337    1.202 
 227.40    4.683    1.741   42.123    1.192 
 227.50    4.842    1.661   42.057    1.173 
 227.60    4.814    1.550   46.058    1.159 
 227.70    4.427    1.573   46.341    1.128 
 227.80    4.134    1.464   43.986    1.144 
 227.90    4.448    1.442   42.115    1.160 
 228.00    4.647    1.502   39.143    1.172 
 228.10    4.800    1.558   40.990    1.162 
 228.20    4.647    1.646   41.111    1.153 
 228.30    4.483    1.570   41.060    1.150 
 228.40    4.402    1.573   41.922    1.138 
 228.50    4.338    1.599   42.287    1.131 
 228.60    4.342    1.606   40.412    1.136 
 228.70    4.494    1.626   38.022    1.154 
 228.80    4.544    1.692   39.421    1.180 
 228.90    4.607    1.737   43.059    1.205 
 229.00    4.579    1.632   47.578    1.204 
 229.10    4.633    1.514   48.335    1.172 
 229.20    4.719    1.397   47.383    1.136 
 229.30    4.936    1.382   44.289    1.140 
 229.40    4.956    1.406   42.730    1.153 
 229.50    4.684    1.499   43.242    1.158 
 229.60    4.267    1.561   39.621    1.156 
 229.70    4.365    1.551   37.273    1.158 
 229.80    4.836    1.706   38.468    1.167 
 229.90    4.925    1.847   42.845    1.173 
 230.00    4.634    1.869   39.738    1.193 
 230.10    4.059    1.716   36.449    1.225 
 230.20    3.322    1.841   33.222    1.273 
 230.30    2.757    1.949   34.645    1.287 
 230.40    2.548    2.090   38.795    1.290 
 230.50    2.915    1.971   42.240    1.267 
 230.60    3.282    1.787   43.532    1.257 
 230.70    3.598    1.659   40.249    1.228 
 230.80    3.711    1.621   38.602    1.227 
 230.90    3.645    1.738   38.138    1.228 
 231.00    3.439    1.804   39.008    1.233 
 231.10    3.330    1.846   39.511    1.232 
 231.20    3.501    1.808   39.974    1.233 
 231.30    3.471    1.790   42.476    1.248 
 231.40    3.424    1.746   42.003    1.247 
 231.50    3.584    1.640   41.411    1.248 
