~Version information
  VERS.                            1.20: CWLS LAS  -  VERSION 1.20
  WRAP.                              NO: One line per depth step
~Well information
# MNEM.UNIT
# ====.================================:===================
  STRT.M                       0.200000: First depth in file
  STOP.M                    1577.200000: Last depth in file
  STEP.M                       0.100000: Depth increment
  NULL.                         9999.99: Null values
  COMP.                         COMPANY:
  WELL.                            WELL:                    6280
  FLD .                           FIELD:                    Алексеевское мест-е
  CNTY.                          COUNTY:
  STAT.                           STATE: RUSSIA
  DATE.                        LOG DATE:                        28/09/2017
  SRVC.                   ООО ТНГ АЛГИС: ООО ТНГ АЛГИС
  UWI.           Unique Well Identifier:
~Parametr information block
# MNEM.UNIT
# ====.================================:===================
~Other information
# ------------------------- REMARKS  AREA ------------------

~Curve information
# MNEM.UNIT
# ====.================================:===================
  DEPTH .M                      :   1 Depth
  GK    .ur/h                   :   Гамма каротаж
  NKTD  .ue                     :   Нейтронный каротаж по тепловым нейтронам (большой зонд)
  WNK   .%                      :   Водородосодержание по НК
  NKTS  .ue                     :   Нейтронный каротаж по тепловым нейтронам (малый зонд)
~A Log        GK     NKTD      WNK     NKTS
# ...
1050.40    2.272    4.947   21.789    2.080 
1050.50    2.090    5.294   19.947    2.133 
1050.60    2.198    5.581   17.769    2.234 
1050.70    2.356    5.892   17.045    2.352 
1050.80    2.517    6.297   17.377    2.425 
1050.90    2.450    6.471   17.921    2.406 
1051.00    2.262    6.581   16.834    2.379 
1051.10    1.921    6.621   15.870    2.380 
1051.20    1.596    6.986   15.358    2.451 
1051.30    1.643    7.185   15.790    2.516 
1051.40    1.852    7.086   16.614    2.548 
1051.50    2.240    6.634   18.211    2.525 
1051.60    2.538    6.100   19.549    2.440 
1051.70    2.443    5.568   21.059    2.324 
1051.80    2.048    5.292   21.594    2.207 
1051.90    1.674    5.083   20.624    2.138 
1052.00    1.826    5.069   19.602    2.131 
1052.10    2.052    5.284   19.951    2.156 
1052.20    2.152    5.515   20.980    2.188 
1052.30    2.019    5.543   22.894    2.208 
1052.40    1.998    5.427   22.709    2.225 
1052.50    1.937    5.261   22.290    2.264 
1052.60    1.803    5.456   20.281    2.295 
1052.70    1.581    5.732   18.386    2.369 
1052.80    1.596    6.218   16.847    2.442 
1052.90    1.547    6.694   15.534    2.531 
1053.00    1.629    7.057   14.907    2.569 
1053.10    1.687    7.420   14.595    2.587 
1053.20    1.912    7.591   14.690    2.576 
1053.30    2.008    7.654   15.450    2.573 
1053.40    2.075    7.517   15.981    2.567 
1053.50    2.226    7.134   16.170    2.555 
1053.60    2.210    6.881   16.729    2.519 
1053.70    2.133    6.771   17.859    2.466 
1053.80    2.094    6.625   19.288    2.429 
1053.90    2.207    6.338   20.660    2.408 
1054.00    2.198    5.890   22.015    2.407 
1054.10    2.020    5.399   23.629    2.402 
1054.20    1.793    4.962   25.204    2.351 
1054.30    1.765    4.668   25.701    2.259 
1054.40    1.870    4.596   24.678    2.172 
1054.50    2.098    4.750   22.087    2.151 
1054.60    2.187    5.126   19.592    2.222 
1054.70    2.109    5.620   16.966    2.330 
1054.80    2.018    5.989   16.100    2.439 
1054.90    2.013    6.478   16.798    2.465 
1055.00    2.008    6.663   18.111    2.416 
1055.10    1.909    6.588   19.092    2.375 
1055.20    1.802    6.357   17.523    2.363 
1055.30    1.952    6.255   15.813    2.400 
1055.40    2.069    6.654   14.764    2.432 
1055.50    2.288    7.086   15.231    2.479 
1055.60    2.283    7.296   16.114    2.491 
1055.70    2.309    7.299   15.721    2.484 
1055.80    2.278    7.125   14.876    2.453 
1055.90    2.286    7.208   15.809    2.500 
1056.00    2.140    7.211   16.490    2.528 
1056.10    2.036    6.759   18.734    2.518 
1056.20    1.873    6.477   17.981    2.435 
1056.30    1.813    5.970   18.008    2.369 
1056.40    1.643    6.211   17.538    2.332 
1056.50    1.566    6.351   17.224    2.336 
1056.60    1.598    6.659   16.486    2.365 
1056.70    1.704    6.973   15.358    2.421 
1056.80    1.831    7.325   14.555    2.494 
1056.90    2.132    7.695   14.282    2.582 
1057.00    2.123    7.904   13.882    2.637 
1057.10    2.097    7.955   13.722    2.650 
1057.20    1.945    8.032   13.441    2.634 
1057.30    2.077    7.952   13.577    2.621 
1057.40    2.263    7.796   14.416    2.602 
1057.50    2.487    7.432   16.196    2.559 
1057.60    2.519    7.079   17.359    2.479 
1057.70    2.578    6.679   17.353    2.377 
1057.80    2.599    6.572   16.421    2.346 
1057.90    2.798    6.695   15.244    2.377 
1058.00    2.803    6.972   15.710    2.445 
1058.10    2.624    7.301   16.131    2.491 
1058.20    2.500    7.181   16.953    2.503 
1058.30    2.493    7.047   17.324    2.502 
1058.40    2.512    6.848   16.479    2.508 
1058.50    2.276    6.750   15.518    2.502 
1058.60    2.010    6.980   15.089    2.510 
1058.70    1.874    7.261   15.612    2.509 
1058.80    1.721    7.387   17.489    2.512 
1058.90    1.732    7.254   18.154    2.516 
1059.00    1.770    6.752   17.278    2.516 
1059.10    1.978    6.569   15.504    2.523 
1059.20    1.918    6.731   14.579    2.525 
1059.30    2.017    7.133   15.367    2.517 
1059.40    2.277    7.306   16.926    2.497 
1059.50    2.496    7.058   17.784    2.471 
1059.60    2.456    6.703   17.750    2.437 
1059.70    2.221    6.539   16.517    2.431 
1059.80    2.264    6.582   16.349    2.454 
1059.90    2.217    6.925   15.750    2.472 
1060.00    2.262    7.101   14.610    2.485 
1060.10    2.155    7.404   13.090    2.496 
1060.20    2.180    7.801   12.450    2.543 
1060.30    2.249    8.283   12.393    2.590 
1060.40    2.296    8.473   12.488    2.606 
1060.50    2.303    8.499   12.252    2.594 
1060.60    2.356    8.553   12.512    2.579 
1060.70    2.499    8.786   12.755    2.581 
1060.80    2.786    8.887   12.432    2.608 
1060.90    2.940    8.931   11.830    2.651 
1061.00    3.042    9.035   12.176    2.713 
1061.10    3.039    9.039   12.177    2.756 
1061.20    2.969    8.583   12.972    2.748 
1061.30    3.008    8.128   14.033    2.675 
1061.40    2.944    7.586   16.076    2.581 
1061.50    3.076    7.228   17.603    2.444 
1061.60    3.062    6.890   16.892    2.363 
1061.70    3.310    6.764   15.994    2.357 
1061.80    3.605    7.168   14.174    2.441 
1061.90    4.190    7.550   12.780    2.540 
1062.00    4.373    8.066   12.262    2.621 
1062.10    4.132    8.441   13.398    2.666 
1062.20    3.555    8.542   14.466    2.646 
1062.30    3.335    8.183   14.682    2.608 
1062.40    3.139    7.874   14.005    2.578 
1062.50    2.986    7.744   12.876    2.597 
1062.60    2.740    7.872   11.077    2.615 
1062.70    2.556    8.214    9.156    2.594 
1062.80    2.169    8.966    9.016    2.564 
1062.90    1.608    9.798   10.940    2.548 
1063.00    1.280    9.844   14.041    2.562 
1063.10    1.718    9.013   15.074    2.545 
1063.20    2.384    8.003   13.859    2.539 
1063.30    3.002    7.805   12.366    2.559 
1063.40    3.143    8.228   12.065    2.611 
1063.50    3.134    8.825   12.930    2.657 
1063.60    3.125    9.075   13.112    2.663 
1063.70    3.185    8.821   13.574    2.676 
1063.80    3.118    8.802   13.560    2.715 
1063.90    2.857    8.579   13.896    2.743 
1064.00    2.515    8.544   13.980    2.759 
1064.10    2.316    8.370   13.979    2.743 
1064.20    2.262    8.261   13.594    2.731 
1064.30    2.198    8.274   13.418    2.714 
1064.40    2.289    8.415   13.291    2.688 
1064.50    2.537    8.481   13.665    2.692 
1064.60    2.726    8.462   13.109    2.693 
1064.70    2.735    8.264   13.395    2.694 
1064.80    2.678    8.404   13.795    2.673 
1064.90    2.553    8.321   14.155    2.653 
1065.00    2.612    8.285   12.914    2.634 
1065.10    2.427    8.296   11.258    2.640 
1065.20    2.536    8.841   10.154    2.675 
1065.30    2.336    9.637    9.762    2.719 
1065.40    2.331   10.195   10.637    2.747 
1065.50    2.079   10.162   11.420    2.777 
1065.60    2.026    9.387   12.320    2.785 
1065.70    2.064    8.758   12.684    2.723 
1065.80    2.361    8.387   13.864    2.626 
1065.90    2.808    8.338   14.671    2.543 
1066.00    3.041    7.986   14.750    2.538 
1066.10    3.192    7.736   14.500    2.565 
1066.20    3.360    7.724   13.937    2.586 
1066.30    3.629    7.928   12.626    2.590 
1066.40    3.953    8.324   10.812    2.595 
1066.50    4.146    8.958    9.627    2.636 
1066.60    4.327    9.865    9.205    2.703 
1066.70    4.106   10.438    9.487    2.748 
1066.80    3.914   10.690    9.245    2.783 
1066.90    3.702   10.516    9.108    2.778 
1067.00    3.584   10.545    9.309    2.784 
1067.10    3.282   10.501   10.284    2.779 
1067.20    2.923   10.323   11.104    2.752 
1067.30    2.698    9.910   11.345    2.721 
1067.40    2.629    9.573   11.196    2.703 
1067.50    2.740    9.585   10.993    2.725 
1067.60    3.133    9.708   10.298    2.739 
1067.70    3.205    9.923    9.556    2.774 
1067.80    3.036    9.998    9.782    2.790 
1067.90    2.562   10.094   10.804    2.824 
1068.00    2.381    9.694   11.947    2.751 
1068.10    2.368    9.079   12.293    2.677 
